artist_id,artist_latitude,artist_location,artist_longitude,artist_name,duration,num_songs,song_id,title,year,process,corrected_location,county,city,state,country,country_code
ARTH9041187FB43E1F,39.76861020000001,"St. Joseph, MO",-94.8467038258343,Eminem,312,1,SOLXDDC12A6701FBFD,I'm Back,2000,Y,"St. Joseph, MO",Buchanan County,St. Joseph,Missouri,USA,us
ARQFUGM1187FB3E24E,34.05369605,"Los Angeles, California, USA",-118.242921218334,Black Label Society,258,1,SOHVHKM12A8C13F716,Counterfeit God,2000,Y,"Los Angeles, USA",Los Angeles County,Los Angeles,California,United States of America,us
ARJ0AL61187B9A3F27,41.71040410000001,Georgia,44.0310814,Katie Melua,193,1,SOFHFLK12AF72A4FB9,Mary Pickford (Used To Eat Roses),2008,Y,Georgia,Tsalka Municipality,,Lower Kartli,Georgia,ge
ARJ2PMY1187FB5B563,40.85172275,NY - Long Island,-73.0992328238247,Burning Spear,334,1,SOVTFUO12A6310D813,The Invasion (Aka Black Wa Da Da),0,Y,"NY, Long Island",Suffolk County,,New York,USA,us
ARWR6RK1187FB3AB52,40.85172275,"Long Island, NY",-73.0992328238247,From Autumn To Ashes,147,1,SOHKXAC12A58A7F6E5,IV,2002,Y,"Long Island, NY",Suffolk County,,New York,USA,us
ARTH03J1187FB3E00C,51.8404967554095,"Hertfordshire, England",-0.0988565402438589,Enter Shikari,236,1,SOBMDHU12A6D4FB3B7,Labyrinth,2007,Y,"Hertfordshire, England",Hertfordshire,East Hertfordshire,England,United Kingdom,gb
ARVUI9A1187FB39AAA,53.40712295,"Liverpool, England",-2.99160780787235,Anathema,401,1,SOZLLTY12A8C132D24,The Sweet Suffering,0,Y,"Liverpool, England",,Liverpool,England,United Kingdom,gb
ARVDYLW11F4C83ED5D,18.1862837,Jamaica,-77.3905458,Anthony B.,225,1,SORDKWD12A81C2297B,Mad Dem,0,Y,Jamaica,Clarendon,,,Jamaika,jm
ARDI1XT1187FB3EA46,34.05369605,"Los Angeles, CA",-118.242921218334,The Byrds,260,1,SOZCDJR12AC468ADEE,Tell Sarah Jane,0,Y,"Los Angeles, CA",Los Angeles County,Los Angeles,California,United States of America,us
ARN3I151187FB41637,39.95240015,"Philadelphia, PA",-75.1629878834212,Gogi Grant,159,1,SONMFYG12AB018C987,When The Tide Is High,2002,Y,"Philadelphia, PA",Philadelphia County,Philadelphia,Pennsylvania,United States of America,us
ARPANXO1187B9B468A,40.85172275,"Long Island, NY",-73.0992328238247,Public Enemy Featuring Paris,281,1,SOJKYYP12AB018CBAD,Hard Rhymin',2005,Y,"Long Island, NY",Suffolk County,,New York,USA,us
AR0D6EL1187B9AF46B,33.89491365,"Compton, California",-118.226754462915,Eazy-E,208,1,SONPYGH12A6701F6CF,I'mma Break It Down,1988,Y,"Compton, California",Los Angeles County,Compton,California,United States of America,us
ARL1MEI1187B9AD98B,40.486208836734704,"New Brunswick, New Jersey",-74.4518063673469,Streetlight Manifesto,120,1,SOOXUVP12A6D4FDC81,A Moment Of Violence (Album Version),2003,Y,"New Brunswick, New Jersey",Middlesex County,New Brunswick,New Jersey,United States of America,us
ARWD25M1187FB4C563,51.5073203,London,-0.12765724122807,Amy Winehouse,229,1,SOSELMV12A6D4FCF5A,Valerie,2007,Y,London,,London,England,United Kingdom,gb
AR677KZ1187B9AEC78,52.390805,Random,-2.5844805,Steps,231,1,SOYCLVO12AB017B630,Never Say Never Again,1999,Y,Random,Shropshire,,England,United Kingdom,gb
ARSENTP1187B9BA2A5,41.50510675,"Cleveland, OH",-81.6936526499885,Jim Brickman,274,1,SOQHAHC12AB0180635,Gathering,2007,Y,"Cleveland, OH",Cuyahoga County,Cleveland,Ohio,USA,us
AR3FE581187FB3F90A,40.6501525,"Brooklyn, NY",-73.9496656,Fabolous,246,1,SOIMRXV12A58A7F1B5,Trade It All PT2  (Early Fade Amended Version- Bonus Track) (featuring P. Diddy & Jagged Edge),2003,Y,"Brooklyn, NY",Kings County,New York,New York,United States of America,us
ARQ3EJL1187B98BF06,42.33155005,"Detroit, MI",-83.0465512,Carl Craig / Moritz Oswald,852,1,SOLRJKY12AB017D675,Movement 6,0,Y,"Detroit, MI",Wayne County,Detroit,Michigan,USA,us
ARC8CQZ1187B98DECA,29.299319897959197,"Galveston, TX",-94.7945932857143,Jack Johnson,228,1,SOOQPIK12A6701F1C5,Fortunate Fool,2000,Y,"Galveston, TX",Galveston County,,Texas,USA,us
ARUSOMY1187FB4D3B4,40.4417509,"Pittsburgh, PA",-79.99009095074841,Anti-Flag,299,1,SOBMWTE12A8C13C2AF,The Modern Rome Burning,2008,Y,"Pittsburgh, PA",Allegheny County,Pittsburgh,Pennsylvania,USA,us
ARRQISZ120AB960FC9,21.315603,Hawaii,-158.008804,Eve,265,1,SOBMZOH12A58A7A6AE,Gangsta B's,0,Y,Hawaii,Honolulu County,Ewa Beach,Hawaii,USA,us
ARJM42R1187B9B69AA,40.486208836734704,"New Brunswick, NJ",-74.4518063673469,Jaheim,269,1,SOVKAOP12A8AE47BE7,Life Of A Thug (Explicit Album Version),2007,Y,"New Brunswick, NJ",Middlesex County,New Brunswick,New Jersey,United States of America,us
ARIH5GU1187FB4C958,54.9738095,Newcastle,-1.61316585,Silverchair,207,1,SOXLEKB12A8C1338EE,Spawn (Again),0,Y,Newcastle,Tyne and Wear,Newcastle upon Tyne,England,United Kingdom,gb
ARBP0WQ1187FB4D7E0,52.47760079999999,"Birmingham, England",-1.8939359,GBH,207,1,SOXBSAW12A8C14321F,Tokyo After Dark,1996,Y,"Birmingham, England",West Midlands Combined Authority,Birmingham,England,United Kingdom,gb
ARFF4B41187FB48151,49.26088995,"Vancouver, British Columbia, Cana",-123.113949636515,The New Pornographers,265,1,SOLSRKX12A8C14466D,Hey_ Snow White,0,Y,"Vancouver, Canada",Metro Vancouver Regional District,Vancouver,British Columbia,Canada,ca
AR6CLFP1187B9ACB94,38.58138579999999,"Sacramento, CA",-121.49471775,Daniel Johnston,270,1,SOQBYJC12A8C1358D9,To Go Home,1982,Y,"Sacramento, CA",Sacramento County,Sacramento,California,USA,us
ARMK4631187FB5CE4A,36.8368359,California - LA,-119.7958714,Larry Norman,201,1,SOCHNZF12AAFF4052F,I've Searched All Around,1972,Y,"California, LA",Fresno County,Fresno,California,USA,us
AR2UQQ51187B9AC816,43.6777346,"Arles, France",4.63091895357143,Gipsy Kings,194,1,SOWEZSI12A81C21CE6,Tu Quieres Volver,1987,Y,"Arles, France",Arles,,Provence-Alpes-Côte d'Azur,France,fr
AREEAVN1187FB5BC58,51.5073203,"London, England",-0.12765724122807,The Feeling,207,1,SOLGICR12A6D4F6006,Rosé,2006,Y,"London, England",,London,England,United Kingdom,gb
ARXWAQQ1187B9AE954,40.7357173333333,"Newark, NJ",-74.17235375,Redman / Saukrates / Icadon,204,1,SOWNKBE12A67FFB39F,Get 'em,0,Y,"Newark, NJ",Essex County,Newark,New Jersey,USA,us
ARKN9J11187B9B210D,40.6535907015951,"New York, NY [Queens]",-73.7918826926766,DJ Clue / P. Diddy,64,1,SOJCRCO12A6D4F89BA,Intro,1998,Y,"Queens, New York",Queens County,New York,New York,USA,us
AR3AY3R1187FB52CF0,30.131645982175694,"Vidor, TX",-94.015477982516,Tracy Byrd,209,1,SOOCGEI12A6D4F9624,Walking To Jerusalem,1996,Y,"Vidor, TX",Orange County,Vidor,Texas,USA,us
ARODJ7N1187B9ACE71,41.89520715,"Rome, Italy",12.4862140741321,Daniele Silvestri,262,1,SOPHLBL12A8C131C09,1.000 Euro Al Mese,0,Y,"Rome, Italy",RM,Rome,Lazio,Italy,it
AR12KKK1187FB37D2D,37.7884969,Bay Area CA,-122.3558473,Zion I,159,1,SOSJFFK12A8C1352C3,Big Ups,2000,Y,Bay Area CA,San Francisco City and County,San Francisco,California,USA,us
ARDVZTE1187FB5A0A1,40.4592803854284,"Sayreville, NJ",-74.3610177528976,Bon Jovi,253,1,SOCZUUF12A58A7BE8C,Wildflower,2005,Y,"Sayreville, NJ",Middlesex County,Sayreville,New Jersey,USA,us
ARODJ7N1187B9ACE71,41.89520715,"Rome, Italy",12.4862140741321,Daniele Silvestri,240,1,SOJBCTB12AAF3B189F,Monetine,2008,Y,"Rome, Italy",RM,Rome,Lazio,Italy,it
ART62WC1187FB47E80,34.566928229202,New Mexico,-105.992966812367,Jim Jones featuring Oshy,224,1,SOXMSNK12AF72A8850,This Is For My Bitches,2009,Y,New Mexico,Torrance County,,New Mexico,USA,us
AR1QF001187B9B2B9F,37.9768382341205,"Concord, CA",-122.03355552979299,Dave Brubeck,194,1,SOBWEUA12AB017EBA4,Summer Song,1976,Y,"Concord, CA",Contra Costa County,Concord,California,United States of America,us
AR5OTME1187B98E8A8,52.2004663,"Lutte, Germany",12.6070683,Keimzeit,84,1,SOEZYRF12A8C139649,Urwaldnashorn,1995,Y,"Lutte, Germany",Potsdam-Mittelmark,,Brandenburg,Germany,de
AROETUE1187FB4A677,34.05369605,"Los Angeles, CA",-118.242921218334,Robin Thicke / Game,246,1,SOGHPON12AB01858BD,Diamonds,2009,Y,"Los Angeles, CA",Los Angeles County,Los Angeles,California,United States of America,us
ARSDPQX1187FB3F2E4,54.703777147332296,UK,-3.2779896532852297,Lamb,133,1,SOIJASI12A58A7D041,Learn,0,Y,UK,Cumbria,Allerdale,England,United Kingdom,gb
ARKP69U1187FB4F210,41.68099225,"Toledo, OH",-83.5115463076213,This Beautiful Republic,198,1,SOMYWZG12A6BD5297A,Black Box (Even Heroes Need A Parachute Album Version),2007,Y,"Toledo, OH",Lucas County,Toledo,Ohio,USA,us
ARZPT2V1187B9B9F90,54.703777147332296,Reino Unido,-3.2779896532852297,The Buggles,207,1,SONBCQX12AB01846B6,Kid Dynamo,1979,Y,Reino Unido,Cumbria,Allerdale,England,United Kingdom,gb
AR615ZF1187FB4A4B0,37.8042763,Oakland CA,-122.2716657,Mistah F.A.B. & Turf Talk,284,1,SOSDKSY12AB0185B72,4 All My Ni@#as,0,Y,Oakland CA,Alameda County,Oakland,California,USA,us
AR6PETN1187B998AA2,40.6501525,"BROOKLYN, New York",-73.9496656,SAUCE MONEY FEATURING MAVERICK,312,1,SOAYZVD12A6D4F8145,Section  53_ Row 78 (Explicit) (Feat. Maverick),0,Y,"BROOKLYN, New York",Kings County,New York,New York,United States of America,us
ARJ3TH41187FB4CF2E,51.5073203,"London, England",-0.12765724122807,Ali & Gipp / Tamala Jones / Kyjuan,251,1,SOGPORB12A8C14079B,Get By,0,Y,"London, England",,London,England,United Kingdom,gb
ARMWCWM1187B9A8587,35.771892446478205,Tennessee,-86.28256024667509,The Greencards,299,1,SOJTACC12A58A7EC7C,Chico Calling,2009,Y,Tennessee,Rutherford County,,Tennessee,United States of America,us
AR22WUY1187FB414B6,29.453542,"ISLAND GROVE, Florida",-82.10635699999997,Karyn White,294,1,SOWSDCM12AB01874BA,The Way You Love Me (LP Version),1988,Y,"ISLAND GROVE, Florida",Alachua County,,Florida,USA,us
ARI9UV41187B98AB58,51.0827402760847,"Dorf, Germany",10.422852665054199,Kreidler,128,1,SOYWKMX12A6D4FA6A0,Hillwood,1996,Y,"Dorf, Germany",Unstrut-Hainich-Kreis,Unstrut-Hainich,Thuringia,Germany,de
AR8W8P31187B9A4063,40.7473231,"South Orange, NJ",-74.2629249,Lauryn Hill,198,1,SOASWKO12B0B80C005,Interlude 3,2002,Y,"South Orange, NJ",Essex County,South Orange,New Jersey,USA,us
AR3DLBB1187B98F3DF,38.14985575,"Staunton, VA",-79.0729791673286,The Statler Brothers,201,1,SOHWHCE12A8C133385,Shenandoah,1967,Y,"Staunton, VA",,Staunton,Virginia,USA,us
ARXPE571187FB4AFD0,41.8753754,"Chicago, IL",-87.6248273616119,Rickie Lee Jones,246,1,SONWSOW12A8C13BC80,Danny's All-Star Joint (LP Version),1979,Y,"Chicago, IL",Cook County,Chicago,Illinois,United States of America,us
AR5MDTR1187FB38653,42.0426609563446,"Hoffman Estates, IL",-88.0798551323479,The Academy Is...,186,1,SOONPLI12A58A7BE3F,Almost Here (Album Version),2005,Y,"Hoffman Estates, IL",Cook County,,Illinois,USA,us
AR4L4WQ1187FB51996,51.87797800000001,"Braintree, Essex, England",0.554167442923166,The Prodigy,312,1,SOASNQV12A8AE48819,Charly (Trip Into Drum And Bass Version) (Remastered),0,Y,"Braintree, England",Essex,,England,United Kingdom,gb
AR198711187B9AD09F,52.7916712002511,İngiltere,-0.539883529384761,Simply Red,303,1,SOGRXZY12A8C139043,Thrill Me,1991,Y,ngiltere,Lincolnshire,South Kesteven,England,United Kingdom,gb
ARQ5Y341187B9AC8BC,41.8650153,"Wheaton, IL",-88.11016743612802,Sleeping At Last,297,1,SOQOVYP12A6D4FACF5,A Skeleton Of Something More,2003,Y,"Wheaton, IL",DuPage County,Wheaton,Illinois,USA,us
ARN5L1O1187FB4D955,33.425492085680396,"Tempe, AZ",-111.940012522301,Eyes Set to Kill,158,1,SOTSHSR12AB01899B6,Play The Part,2010,Y,"Tempe, AZ",Maricopa County,Tempe,Arizona,United States of America,us
ARYML1P1187B9AF39B,41.71040410000001,Georgia,44.0310814,Devo,159,1,SOKUUOE12A6D4F80EB,Sloppy (I Saw My Baby Gettin'),1978,Y,Georgia,Tsalka Municipality,,Lower Kartli,Georgia,ge
ARZV4CE1187FB3FFDC,54.6638113,"Bangor, County Down, Ireland",-5.6674943,Foy Vance,261,1,SOGKIUA12A6D4FB715,Elshaneed,2007,Y,"Bangor, Ireland",County Down,,Northern Ireland,United Kingdom,gb
ARI5E6U1187B9B525A,39.33305130601821,"Chillicothe, OH",-82.98240382678229,Nancy Wilson,237,1,SOALLGJ12A8C13C579,This Mother's Daughter (2007 Digital Remaster),0,Y,"Chillicothe, OH",Ross County,Chillicothe,Ohio,United States of America,us
AR6LZB61187B9AF431,51.4913670863579,"Basildon, England",-1.1339374631949095,Depeche Mode,397,1,SODAOIX12A67AD84DA,Precious (Motor Remix),2005,Y,"Basildon, England",West Berkshire,,England,United Kingdom,gb
ARR65F51187FB47D3D,33.9535072309024,"Riverside, CA",-117.396163327698,Voodoo Glow Skulls,192,1,SOGASRU12A8C1389BD,Orlando's Not Here,2000,Y,"Riverside, CA",Riverside County,Riverside,California,USA,us
AR0GSFY1187B9A5A2E,37.57268519667829,Kentucky,-85.157858437262,Rocko,225,1,SOXPTLT12AB017AD74,Dis Morning,0,Y,Kentucky,Marion County,,Kentucky,USA,us
AR11YQ81187FB3C654,30.271149,"Austin, TX",-97.743713,Dixie Chicks,296,1,SOLVZZO12A8C130E19,Give It Up Or Let Me Go,1998,Y,"Austin, TX",Travis County,Austin,Texas,USA,us
ARAIABB1187B9AC6E2,51.516276125,"Paddington, London, England",-0.1792263,Seal,117,1,SOZVZWP12A58A7BAD1,Show Me (Acoustic Version),0,Y,"Paddington, London",,London,England,United Kingdom,gb
ARD1YB31187FB36C3E,42.6182439,Italy,12.6729598,Articolo 31,306,1,SONHLPN12A8C13A726,Domani,1996,Y,Italy,TR,,Umbria,Italy,it
ARZ0RS81187B98F252,42.886398,"Buffalo, NY",-78.8781513429567,Mercury Rev,260,1,SOKRVXP12AAF3B2FA7,Observatory Crest,2005,Y,"Buffalo, NY",Erie County,Buffalo,New York,USA,us
ARQXR6R1187FB46FD6,44.970839672957105,"Minneapolis, MN",-93.2683221991986,Soul Asylum,168,1,SOOUNZH12A6D4F9584,Don't It (make Your Troubles Seem Small) (Album Version),1986,Y,"Minneapolis, MN",Hennepin County,Minneapolis,Minnesota,USA,us
ARVMFTR1187FB4CCF0,40.71274295,"New York, NY",-74.0059502441252,Asobi Seksu,277,1,SOHBYIJ12A6D4FB344,Nefi + Girly,2006,Y,"New York, NY",New York County,New York,New York,USA,us
ARF9Z4Q1187FB5B40B,40.71274295,NY - New York City,-74.0059502441252,The Wiyos,186,1,SOSAXES12AC3DF68E7,Dontchaletmecatchya,0,Y,"NY, New York City",New York County,New York,New York,USA,us
AR2QIVJ1187B9AF497,33.748619500000004,"Atlanta, GA",-84.3907725501786,YoungBloodZ,358,1,SOYPPIV12A8C138E25,Pop_ Pop_ Pop/Cuttin' Tonight Interlude,1999,Y,"Atlanta, GA",Fulton County,Atlanta,Georgia,United States of America,us
ARFMT4W1187FB42FA8,39.8452447,"Decatur, IL",-88.9524008263186,Alison Krauss,260,1,SOXLOVY12AB018156D,When You Say Nothing At All,1995,Y,"Decatur, IL",Macon County,,Illinois,USA,us
ARSMQR01187FB38EB2,33.8356033364525,"Torrance, CA",-118.340659622458,Larry Carlton,521,1,SOEWJOV12AF72A2661,All In Good Time,1989,Y,"Torrance, CA",Los Angeles County,Torrance,California,USA,us
ARHLT3W1187FB5711F,-19.9235832,"Belo Horizonte, Brazil",-43.9447845,Sepultura,190,1,SORTBHH12A8AE4590A,Boycott (Album Version),1998,Y,"Belo Horizonte, Brazil",Microrregião Belo Horizonte,Belo Horizonte,Minas Gerais,Brazil,br
ARRJES71187FB4D09E,44.3104653,"Kingston, Ontario, Canada",-76.4263323218006,Bryan Adams,220,1,SOJCKRB12A58A7CE49,What's It Gonna Be,1983,Y,"Kingston, Canada",,Kingston,Ontario,Canada,ca
ARTYSP51187FB58D11,51.5073203,"London, England",-0.12765724122807,The Magic Numbers,247,1,SOQFADA12A6D4FAAC6,Steal Me A Dream (Demo For Jane Birkin),2007,Y,"London, England",,London,England,United Kingdom,gb
ARZZ5ZR1187FB4D149,39.7848239629081,United States,-100.445877598878,Air,145,1,SOUGUFQ12A6D4F8AAC,Bathroom Girl,0,Y,United States,Decatur County,,Kansas,USA,us
AREBWEH1187B99EA9A,60.1674653,Helsinki,24.9425458,Beherit,266,1,SOYYJNB12AB0184408,Suck My Blood,2009,Y,Helsinki,Helsinki sub-region,Helsinki,Southern Finland,Finland,fi
ARSQDUN1187B98D7D7,40.6021323,allentown Pennsylvania USA,-75.4712664,EPMD,161,1,SODKZLY12A8C13F228,Jane 5,1997,Y,allentown Pennsylvania USA,Lehigh County,Allentown,Pennsylvania,USA,us
ARIETVC1187B9B651D,33.728753000000005,"Palm Desert, CA",-116.382691,Kyuss,355,1,SOWFPXQ12A58A77B27,Shine,1995,Y,"Palm Desert, CA",Riverside County,Palm Desert,California,USA,us
ARB0W0J1187FB4834D,41.3142269,"BROADVIEW HEIGHTS, Ohio",-81.6850926,Stealers Wheel,200,1,SOPFADW12A8C14397E,Stuck In The Middle With You,1973,Y,"BROADVIEW HEIGHTS, Ohio",Cuyahoga County,,Ohio,USA,us
AR1FQLN1187FB3996C,-41.2891165,"Wellington, Aotearoa, New Zealand",174.777026858159,Flight Of The Conchords,194,1,SONXATL12AB017BBE8,I Told You I Was Freaky,2009,Y,"Wellington, New Zealand",Wellington City,,Wellington,New Zealand,nz
ARYZV2X1187B997BE7,36.8368359,California - LA,-119.7958714,Chris Standring,261,1,SOGKSAD12AF72A35AA,Through the Looking Glass (jazz),2006,Y,"California, LA",Fresno County,Fresno,California,USA,us
ARH0TST1187FB3F8F1,41.25918915,"Omaha, NE",-95.93787264699706,Bright Eyes / Nick Zinner,185,1,SOVBREL12A6D4F8428,Deviltown,0,Y,"Omaha, NE",Douglas County,Omaha,Nebraska,USA,us
AROETUE1187FB4A677,34.05369605,"Los Angeles, CA",-118.242921218334,Thicke,273,1,SOEIDEK12A6D4F823F,Brand New Jones,0,Y,"Los Angeles, CA",Los Angeles County,Los Angeles,California,United States of America,us
ARFO65E1187B9ACA27,48.20832539999999,"Vienna, Austria",16.3722945708564,John Tejada,306,1,SODDAQG12A6D4F5C34,Something About The Drums,2004,Y,"Vienna, Austria",,,Vienna,Austria,at
AR4GAFY1187B9B639D,35.1492032387007,"Memphis, Tennessee",-90.0515765982326,BB King,186,1,SOCCQJE12AB018722F,She Don't Move Me No More,1995,Y,"Memphis, Tennessee",Shelby County,Memphis,Tennessee,USA,us
ARR30921187FB36C2D,38.70772685,"Lisboa, Portugal ",-9.13663134570704,Mariza,204,1,SORURET12A6D4F62A0,Meu Fado Meu,2005,Y,"Lisboa, Portugal",Lisbon,Lisbon,Área Metropolitana de Lisboa,Portugal,pt
ARAW99S1187B9B6EBF,31.76053,"El Paso, TX",-106.4866628,Phil Ochs,264,1,SOUNWLM12A8C140695,We Seek No Wider War (Home Tape),2007,Y,"El Paso, TX",El Paso County,El Paso,Texas,USA,us
AR05OG01187B9B8A98,39.9284591559563,"Upper Darby, PA",-75.2738018886253,Todd Rundgren,274,1,SOVXONV12A6D4FB46F,Sons Of 1984,1973,Y,"Upper Darby, PA",Delaware County,,Pennsylvania,USA,us
ARBYA1N1187B98F5A1,40.69442945,"Peoria, IL",-89.5888229253737,Mudvayne,54,1,SOXLFEF12A8C12FD05,Golden Ratio,2000,Y,"Peoria, IL",Peoria County,Peoria,Illinois,USA,us
ARA1UU51187FB5A70B,40.0884475,New Jersey,-74.3995939,The Misfits,181,1,SONRWFT12A6D4F983A,Dig Up Her Bones,1997,Y,New Jersey,Ocean County,,New Jersey,USA,us
ARFWGRI1187FB52E45,40.71274295,New York,-74.0059502441252,Ours,182,1,SOEYHOI12A6BD53860,Il Était Temps,2007,Y,New York,New York County,New York,New York,USA,us
ARMH4YI1187FB3F45E,33.30498775,"Monticello, GA",-83.68389730860291,Trisha Yearwood / Rosanne Cash,213,1,SOLJXJL12A6D4F8987,Seven Year Ache (with Rosanne Cash),0,Y,"Monticello, GA",Jasper County,,Georgia,USA,us
ARAUA5K1187B9AA95F,59.9134978,"Oslo, Norway",10.7391691,Hanne Hukkelberg,240,1,SOAWTXJ12A8C13EBE2,The North Wind,2007,Y,"Oslo, Norway",Oslo,Oslo,,Norway,no
ARFPAOJ1187FB4057A,41.8753754,"Chicago, IL",-87.6248273616119,Chali 2na,207,1,SOEFSOU12AAF3B4525,Lunch Time,2004,Y,"Chicago, IL",Cook County,Chicago,Illinois,United States of America,us
ARBN9EC1187B9AED58,38.270751,"Petaluma, CA",-122.606885,Tsunami Bomb,151,1,SOQLDAL12A8C13D11A,Russian Roulette,2002,Y,"Petaluma, CA",Sonoma County,Petaluma,California,USA,us
ARIJE1A1187B9A458D,36.9793344745617,"Newport News, Virginia",-76.4323792052167,Ella Fitzgerald,164,1,SOITBRQ12A8C13AB08,I Shall Not Be Moved,1967,Y,"Newport News, Virginia",,Newport News City,Virginia,USA,us
ARXDFN01187B9AE80E,38.8951076,Washington,-77.03654809999998,The Presidents of the United States of America,159,1,SOKOHLQ12AF729B221,Poke And Destroy,2004,Y,Washington,,Washington,District of Columbia,USA,us
ARVKB9G1187B990C70,40.71274295,"New York, NY",-74.0059502441252,Keith Sweat,244,1,SOQFLSY12A58A7B943,Don't Have Me,2000,Y,"New York, NY",New York County,New York,New York,USA,us
AR1FS3Q11A348F04D8,42.4929545,Warren MI,-83.00598954377959,I See Stars,144,1,SOILJAK12AC9072F77,Sing This! (feat. Feat. Bizzy Bone),0,Y,Warren MI,Macomb County,Warren,Michigan,USA,us
ARBW1J61187B9B8B54,19.4328333,"Mexico City, Mexico",-99.1331602223209,Lucero,188,1,SOCPAPD12A6D4F816F,I Don''t Wanna Be The One,0,Y,"Mexico City, Mexico",Cuauhtémoc,,Mexico City,Mexico,mx
AR92KZ11187FB53A73,48.8565387,"Paris, France",2.3518054,Sniper,64,1,SOORTPN12AB018661A,Intro Du Rire Aux Larmes,0,Y,"Paris, France",Paris,Paris,Ile-de-France,France,fr
ARGP47U1187FB4D0EB,53.3803404,"Sheffield, Yorkshire, England",-1.4686085814418302,ABC,188,1,SORANYU12A6D4F7736,Bite The Hand,0,Y,"Sheffield, England",,Sheffield,England,United Kingdom,gb
ARZ5MA11187FB4307E,54.31202560000001,Great Britain / UK,-1.9188685,The London Community Gospel Choir,346,1,SOVLVDB12A6D4F7DB0,Precious Lord,0,Y,"Great Britain, UK",North Yorkshire,Richmondshire,England,United Kingdom,gb
AR1U87A1187FB4D0D6,53.40712295,"Liverpool, England",-2.99160780787235,Adam F,319,1,SOHVNST12A8C138D04,Music In My Mind (Album Version),1997,Y,"Liverpool, England",,Liverpool,England,United Kingdom,gb
ARW3OU61187B98A81E,51.5073203,"London, England",-0.12765724122807,Hexstatic,99,1,SOUMUUK12AB018AEF6,Intermission,0,Y,"London, England",,London,England,United Kingdom,gb
AR88PUH1187FB52B3B,40.6080895428571,"Rahway, NJ",-74.27766105714291,Eric Roberson,254,1,SOSOJTG12A8C143272,Just A Dream,2005,Y,"Rahway, NJ",Union County,Rahway,New Jersey,United States of America,us
ARP15911187B9B0676,39.7392115,"Denver, CO",-104.984846745298,Jill Sobule,241,1,SOZHYRR12AB018B056,Houdini's Box (LP Version),1995,Y,"Denver, CO",Denver County,Denver,Colorado,USA,us
AR6892W1187B9AC71B,51.5073203,"London, England",-0.12765724122807,Placebo,241,1,SODWXQV12A6310F10D,English Summer Rain,2003,Y,"London, England",,London,England,United Kingdom,gb
AR9Q9YC1187FB5609B,40.0884475,New Jersey,-74.3995939,Quest_ Pup_ Kevo,252,1,SOFRDWL12A58A7CEF7,Hit Da Scene,0,Y,New Jersey,Ocean County,,New Jersey,USA,us
ARXQBR11187B98A2CC,53.40712295,"Liverpool, England",-2.99160780787235,Frankie Goes To Hollywood,821,1,SOBRKGM12A8C139EF6,Welcome to the Pleasuredome,1985,Y,"Liverpool, England",,Liverpool,England,United Kingdom,gb
ARGE7G11187FB37E05,40.6501525,"Brooklyn, NY",-73.9496656,Cyndi Lauper,240,1,SONRWUU12AF72A4283,Into The Nightlife,2008,Y,"Brooklyn, NY",Kings County,New York,New York,United States of America,us
AR10USD1187B99F3F1,43.3247719,"Burlington, Ontario, Canada",-79.79683359999999,Tweeterfriendly Music,189,1,SOHKNRJ12A6701D1F8,Drop of Rain,0,Y,"Burlington, Canada",Halton Region,Burlington,Ontario,Canada,ca
ARBVASN1187B9890CB,41.8753754,"Chicago, IL",-87.6248273616119,Lucky Boys Confusion,169,1,SOZQOSV12AB018CDFC,Do You Miss Me (Killians) (LP Version),2001,Y,"Chicago, IL",Cook County,Chicago,Illinois,United States of America,us
ARVZDOM1187B9B49C9,40.6501525,"Brooklyn, NY",-73.9496656,Barry Manilow,298,1,SOEGWEI12A8C143182,Some Bar By The Harbor,0,Y,"Brooklyn, NY",Kings County,New York,New York,United States of America,us
AR7H9U01187FB390F5,29.9498071,"New Orleans, LA",-90.06986640000002,Terence Blanchard,350,1,SOBJLBQ12A8C13F883,Funeral Dirge,2007,Y,"New Orleans, LA",Orleans Parish,New Orleans,Louisiana,USA,us
AR9ODB41187FB459B2,38.789209,"SPRINGFIELD, Virginia",-77.187496,Organized Konfusion,198,1,SOFXNQP12AB0184F1A,Hate,1997,Y,"SPRINGFIELD, Virginia",Fairfax County,,Virginia,USA,us
ARZJ4MI1187B9AF5AF,-36.3567813,"Orange County, CA",146.3227031546,Reel Big Fish,103,1,SOWZYPQ12AAF3B1F3D,I'm Cool,1997,Y,"Wangaratta, Australia",Rural City of Wangaratta,Wangaratta,Victoria,Australia,au
ARJGNV61187B98F3B5,30.43811675,"Tallahassee, FL",-84.2813125005937,Mira,177,1,SOUQVUD12A8C142DCE,Openbare Weg,2006,Y,"Tallahassee, FL",Leon County,Tallahassee,Florida,USA,us
ARXWAQQ1187B9AE954,40.7357173333333,"Newark, NJ",-74.17235375,Redman,124,1,SORWHWY12A6702038E,WKYA (drop),2001,Y,"Newark, NJ",Essex County,Newark,New Jersey,USA,us
ARWUNH81187FB4A3E0,25.77433060000001,"Miami , Florida",-80.1937321,Trick Daddy,227,1,SOVNKJI12A8C13CB0D,Take It To Da House (Featuring The Slip N' Slide Express) (Super Clean Album Version),2001,Y,"Miami, Florida",Miami-Dade County,Miami,Florida,USA,us
AR1LOGZ1187B990FB4,42.360401,"Boston, MA",-71.0576816290551,Mike Stern,307,1,SOWBWRV12A6D4FB3D0,I Know You,0,Y,"Boston, MA",Suffolk County,Boston,Massachusetts,USA,us
ARC43071187B990240,31.9813350849057,"Wisner, LA",-91.6556649528302,Wayne Watson,245,1,SOKEJEJ12A8C13E0D0,The Urgency (LP Version),0,Y,"Wisner, LA",Franklin Parish,,Louisiana,USA,us
AR1S3NH1187B98C2BC,18.4185195977504,"Clarks Town, Jamaica",-77.5474963944122,Anthony B,202,1,SONHGLD12AB0188D47,Our Father,1999,Y,"Clarks Town, Jamaica",Trelawny,,,Jamaika,jm
AR7C9271187FB39BF8,38.718492,"Wellsville, KS",-95.0816354,Chely Wright,199,1,SOWBQRV12A6D4FCC8F,I Got Him Ready For You,2005,Y,"Wellsville, KS",Franklin County,Wellsville,Kansas,USA,us
ARRU15I1187B9A2E35,48.876423,Sony Music,2.333543,Lorie,234,1,SOFJZTV12A8AE48893,Ensorcelée,2004,Y,Sony Music,Paris,Paris,Ile-de-France,France,fr
AR6LZB61187B9AF431,51.4913670863579,"Basildon, England",-1.1339374631949095,Depeche Mode,390,1,SORVSFF12A8C1371CF,World In My Eyes (Mode To Joy),1990,Y,"Basildon, England",West Berkshire,,England,United Kingdom,gb
ARRTIN91187FB4BC6F,34.05369605,"Los Angeles, CA",-118.242921218334,Say Anything,111,1,SORDFRB12A8AE4759B,We Killed It,2007,Y,"Los Angeles, CA",Los Angeles County,Los Angeles,California,United States of America,us
AR6C8EJ1187FB3F473,-21.12012355," Ubá, Minas Gerais",-42.942597380451105,Nelson Ned,211,1,SOCCQIQ12A8C13C76B,Brasas Vivas,0,Y,"Ub, Minas Gerais",Microrregião Ubá,Ubá,Minas Gerais,Brazil,br
ARS927Z1187B9ACA29,52.47760079999999,"Birmingham, England",-1.8939359,Robert Plant,284,1,SOFKLRD12A58A7C947,Funny In My Mind (I Believe I'm Fixin' To Die),2002,Y,"Birmingham, England",West Midlands Combined Authority,Birmingham,England,United Kingdom,gb
ARIFGKC1187B9B04D5,40.369968,"Steubenville, OH",-80.63412059999997,Dean Martin,165,1,SOYCTBG12A8C144341,Until You Love Someone,2005,Y,"Steubenville, OH",Jefferson County,Steubenville,Ohio,USA,us
ARMCIEC1187FB3E98A,38.89048275,"Arlington, VA",-77.08330874623559,Rachael Yamagata,224,1,SOWVOIK12A8C13EB94,Letter Read,2001,Y,"Arlington, VA",Arlington County,,Virginia,United States of America,us
AR8W8P31187B9A4063,40.7473231,"South Orange, NJ",-74.2629249,Lauryn Hill,150,1,SOFEAMD12AB017F1C2,Intro,1998,Y,"South Orange, NJ",Essex County,South Orange,New Jersey,USA,us
ARJP2NO1187FB3AFB9,40.71274295,NY - New York City,-74.0059502441252,IZZ,256,1,SOEAXKZ12A81C208DA,Just A Girl,1999,Y,"NY, New York City",New York County,New York,New York,USA,us
ARGS47D1187FB40225,51.5073203,"London, England",-0.12765724122807,Peter And Gordon,127,1,SODIWID12A6D4F803A,Lucille (1999 Digital Remaster) (Stereo),0,Y,"London, England",,London,England,United Kingdom,gb
ARPLTRF11E8F5C15C5,39.7848239629081,United States,-100.445877598878,Lost Immigrants,222,1,SOWCWAD12AB017FD51,Memories & Rust,0,Y,United States,Decatur County,,Kansas,USA,us
ARL26PR1187FB576E5,55.86115690000001,"Glasgow, Scotland",-4.25022424655349,Camera Obscura,350,1,SOLRWTN12AC90719FF,Double Feature,0,Y,"Glasgow, Scotland",Glasgow City,Glasgow,Scotland,United Kingdom,gb
ARNUJQM1187FB3EE72,40.967970179067706,"Bergen County, NJ",-74.0562236023718,Number Twelve Looks Like You,258,1,SOBIODA12A8C13CDAD,Cradle the Crater,2007,Y,"Bergen County, NJ",Bergen County,Township of Washington,New Jersey,USA,us
ARUZRFN1187B98AC05,41.50510675,"Cleveland, OH",-81.6936526499885,Bone Thugs-N-Harmony / Akon,286,1,SOBOCAG12A6BD55D56,Never Forget Me,2007,Y,"Cleveland, OH",Cuyahoga County,Cleveland,Ohio,USA,us
ARCUL501187B9AF797,53.794362,"Bradford, W. Yorks, England",-1.7520198,The Cult,256,1,SOMRVWC12A8C1328E4,Bone Bag (Lyceum Live),0,Y,"Bradford, England",,Bradford,England,United Kingdom,gb
ARZWK2R1187B98F09F,41.8753754,Chicago,-87.6248273616119,Rise Against,218,1,SOSKUNI12AB0187F12,Amber Changing,2003,Y,Chicago,Cook County,Chicago,Illinois,United States of America,us
AR1WWVL1187B9B0306,52.47760079999999,"Birmingham, England",-1.8939359,UB40,207,1,SOZODBG12A6701C5D1,Reasons (Radio Remix),0,Y,"Birmingham, England",West Midlands Combined Authority,Birmingham,England,United Kingdom,gb
ARS1OWB1187B99EEAD,40.71274295,"New York, NY",-74.0059502441252,The New York Dolls,344,1,SOGKIWV12A6D4F86C4,Human Being,1974,Y,"New York, NY",New York County,New York,New York,USA,us
AROEL1B1187B988B90,40.69158145,"South Jamaica, Queens",-73.80587751434179,Lost Boyz,269,1,SOFHBAR12A6701D0FE,Certain Things We Do,1997,Y,"South Jamaica, Queens",Queens County,New York,New York,USA,us
AR4E4121187FB51F4E,34.05369605,Los Angeles,-118.242921218334,A Fine Frenzy,201,1,SOBBGQK12AB0183F1E,The Beacon,2009,Y,Los Angeles,Los Angeles County,Los Angeles,California,United States of America,us
AR6GME21187FB58F39,26.6161211,"LAKE WORTH, Florida",-80.0691417,Antoine Clamaran,441,1,SOUXJJP12AB0181239,Get Down,2008,Y,"LAKE WORTH, Florida",Palm Beach County,,Florida,USA,us
AR5AZR91187FB41BD7,41.7066062,"Poughkeepsie, NY",-73.92862072649359,Matchbook Romance,259,1,SOUUACJ12A8C13ABDE,My Eyes Burn (Album Version),2003,Y,"Poughkeepsie, NY",Dutchess County,Poughkeepsie,New York,USA,us
ARWAFY51187FB5C4EF,33.748619500000004,"Atlanta, GA",-84.3907725501786,Lil Scrappy,196,1,SOHQZIB12A6D4F9FAF,N****_ What's Up [Featuring 50 Cent] (Album Version),2006,Y,"Atlanta, GA",Fulton County,Atlanta,Georgia,United States of America,us
ARR9XGB1187B9912E6,39.95240015,"Philadelphia, PA",-75.1629878834212,Boyz II Men,329,1,SOFRAZJ12A8C143CDB,On Bended Knee,1994,Y,"Philadelphia, PA",Philadelphia County,Philadelphia,Pennsylvania,United States of America,us
ARBVX4Y1187FB42E5E,53.74370920000001,"Hull, England",-0.3392093,The Housemartins,176,1,SOLPPOD12A6701D227,Me And The Farmer,1987,Y,"Hull, England",Kingston upon Hull,,England,United Kingdom,gb
ARF3GX71187FB3EB66,37.28072464,"Medicine Lodge, KS",-98.58036448,Martina McBride,261,1,SOGQTRZ12A8C13C8B0,I Can't Stop Loving You,2005,Y,"Medicine Lodge, KS",Barber County,,Kansas,USA,us
ARDMBVC1187B98ED2A,36.1619463,"Nashville, TN",-86.7737335837817,LITTLE TEXAS,246,1,SONMIVJ12A58A76E0B,My Love (Album Version),0,Y,"Nashville, TN",Davidson County,Nashville-Davidson,Tennessee,USA,us
ARTDQRC1187FB4EFD4,34.05369605,"Los Angeles, CA",-118.242921218334,Black Eyed Peas,229,1,SOCHRXB12A8AE48069,Let's Get It Started,2004,Y,"Los Angeles, CA",Los Angeles County,Los Angeles,California,United States of America,us
AR3DXTG1187FB38776,51.4630736510158,"Bexleyheath, Kent, England",0.148429581963179,Kate Bush,219,1,SOGYILS12AF72A82AD,Coffee Homeground,1978,Y,"Bexleyheath, England",,London,England,United Kingdom,gb
ARILUEI1187B98DB61,33.9596846,"Athens, GA",-83.3763606,Widespread Panic,280,1,SOHHGNB12A58A7C9C4,Climb To Safety,1999,Y,"Athens, GA",Athens-Clarke County,Athens-Clarke County Unified Government,Georgia,USA,us
ARKZJ301187FB521B2,50.07267635,LDN,14.3411296736969,Lily Allen,264,1,SOFJNQR12A6D4FAE92,U Killed It,2006,Y,LDN,okres Hlavní město Praha,Prague,Prague,Czechia,cz
ARHLT3W1187FB5711F,-19.9235832,"Belo Horizonte, Brazil",-43.9447845,Sepultura,330,1,SOOETXC12A8C142B93,Ludwig Van,2009,Y,"Belo Horizonte, Brazil",Microrregião Belo Horizonte,Belo Horizonte,Minas Gerais,Brazil,br
AR7HJJF1187FB3820E,48.3973404,"Ulm, Germany",9.9934192,Hildegard Knef,110,1,SOKKKAQ12AB0180FAD,Gestern hab' ich noch nachgedacht (Live),0,Y,"Ulm, Germany",,Ulm,Baden-Württemberg,Germany,de
ARN3SEQ1187FB47AA8,47.6038904,"Seattle, WA",-122.330098649484,Heart,354,1,SOLCFEW12A8C136C0F,Rockin' Heaven Down,0,Y,"Seattle, WA",King County,Seattle,Washington,USA,us
ARMQHX71187B9890D3,33.748619500000004,"Atlanta, GA",-84.3907725501786,Mastodon,233,1,SODYZIU12A8C13FBD9,Shadows That Move,2001,Y,"Atlanta, GA",Fulton County,Atlanta,Georgia,United States of America,us
ARR79ZC1187B98CE2F,40.0884475,New Jersey,-74.3995939,Clem Snide,197,1,SORVAQT12A8C142ED1,All Green,2003,Y,New Jersey,Ocean County,,New Jersey,USA,us
ARTBSEF1187FB3CBDE,30.36473935,"Pascagoula, MS",-88.5589025400927,Jimmy Buffett,354,1,SOMDKTT12A6D4FB426,Jamaica Mistaica,1996,Y,"Pascagoula, MS",Jackson County,Pascagoula,Mississippi,USA,us
ARVJUSL1187FB39B91,59.9134978,Oslo NORWAY,10.7391691,Serena-Maneesh,218,1,SOTALPS12B34F1EC7B,Reprobate!,2010,Y,Oslo NORWAY,Oslo,Oslo,,Norway,no
ARWHYTK1187FB482B3,40.9712920780376,Pennsylvania,-77.7283279750352,Karen Dalton,187,1,SOMHQWK12A6D4F7C62,It Hurts Me Too,1969,Y,Pennsylvania,Centre County,Howard township,Pennsylvania,USA,us
ARQATCR1187FB4D3E6,40.4168654,"Madrid, Spain",-3.7043021694878,Alejandro Sanz,270,1,SOLOOSA12AC4688A3C,Corazon Partio Club Mix Edit,0,Y,"Madrid, Spain",Área metropolitana de Madrid y Corredor del Henares,Madrid,Community of Madrid,Spain,es
AR6OL631187FB49241,36.8368359,California - LA,-119.7958714,Colby O'Donis,233,1,SOGSCWO12AB0182A60,Tell Me This,2008,Y,"California, LA",Fresno County,Fresno,California,USA,us
AR3LB3G1187FB405DD,39.75909,"Dayton, OH",-84.1914167,The Devil Wears Prada,241,1,SOXJPJI12AB01855CC,Danger: Wildman,2009,Y,"Dayton, OH",Montgomery County,Dayton,Ohio,United States of America,us
ARVML631187B99E90D,33.9596846,"Athens, GA",-83.3763606,The B-52's,261,1,SONRSQW12A6D4F6D1C,Wig,1986,Y,"Athens, GA",Athens-Clarke County,Athens-Clarke County Unified Government,Georgia,USA,us
ARW64KS1187FB3C94D,47.75611545,AU,7.01941216770063,Doves,480,1,SOFHWGB12AB0180F70,Jetstream (Sasha Subdub),0,Y,AU,Thann-Guebwiller,,Grand Est,France,fr
ARMLETE1187B99070D,40.4168654,"Madrid, Spain",-3.7043021694878,Canteca de macao,169,1,SOHUKWK12AB017EB85,Green yin,2009,Y,"Madrid, Spain",Área metropolitana de Madrid y Corredor del Henares,Madrid,Community of Madrid,Spain,es
ARAZP5N1187B9B4D5D,30.271149,"Austin, TX",-97.743713,Okkervil River,359,1,SOUOLYL12A6D4FBD4B,A Favor,2004,Y,"Austin, TX",Travis County,Austin,Texas,USA,us
AR6PJ8R1187FB5AD70,10.98113355,"Barranquilla, Colombia",-74.8011577444653,Shakira Featuring Wyclef Jean,217,1,SOEHWGF12A6D4F8B2B,Hips Don't Lie (featuring Wyclef Jean),0,Y,"Barranquilla, Colombia",Barranquilla,Barranquilla,Atlántico,Colombia,co
ARE1E131187B9B6F22,36.654491,"HILTONS, US",-82.4670761111111,June Carter Cash,178,1,SOBQFAX12A6D4FC885,Hold Fast To The Right,2004,Y,"HILTONS, US",Scott County,,Virginia,USA,us
AR6XPWV1187B9ADAEB,47.6038904,"Seattle, WA",-122.330098649484,Foo Fighters,117,1,SODOLVO12B0B80B2F4,Hell,2005,Y,"Seattle, WA",King County,Seattle,Washington,USA,us
AR8B79N1187B98FB4A,18.397959600000004,"Rio Piedras, Puerto Rico",-66.05247246403971,Chayanne,208,1,SOPABCG12AB0181B38,Te Echo De Menos,2006,Y,"Rio Piedras, Puerto Rico",San Juan,,Puerto Rico,United States of America,us
ARFWGRI1187FB52E45,40.71274295,New York,-74.0059502441252,Ours,293,1,SOJGBAQ12A8C141EB2,Chapter 2 (Money),0,Y,New York,New York County,New York,New York,USA,us
ARM900S1187FB5A3F7,32.4464525616293,"Abilene, Texas",-99.74788623511499,Micah P. Hinson,105,1,SOLWFRC12A81C20841,When We Embraced,2008,Y,"Abilene, Texas",Taylor County,Abilene,Texas,United States of America,us
AR98JLC1187B9ADE23,34.05369605,"Los Angeles, CA",-118.242921218334,Megadeth,273,1,SOYSCPE12AB0181BBF,Blackmail The Universe,2004,Y,"Los Angeles, CA",Los Angeles County,Los Angeles,California,United States of America,us
ARQFUGM1187FB3E24E,34.05369605,"Los Angeles, California, USA",-118.242921218334,Black Label Society,282,1,SOWSMWJ12AB0182D5B,Born To Booze,2001,Y,"Los Angeles, USA",Los Angeles County,Los Angeles,California,United States of America,us
ARZHPKG1187FB4A298,37.8042763,"Oakland, CA",-122.2716657,Judee Sill,193,1,SOCEGVY12AB0182BBC,The Wreck of the FFV - Fast Flying Vestibule,0,Y,"Oakland, CA",Alameda County,Oakland,California,USA,us
AREFFQF1187FB3F845,40.71274295,"New York, NY",-74.0059502441252,The Hold Steady,141,1,SOKGRUO12A67ADBA54,Don't Let Me Explode,2005,Y,"New York, NY",New York County,New York,New York,USA,us
ARNLO5S1187B9B80CC,34.1473291,"Pasadena, CA",-118.1446373,Van Halen,209,1,SOLRYQR12A670215BF,Panama (Remastered Album Version),0,Y,"Pasadena, CA",Los Angeles County,Pasadena,California,USA,us
ARIQ98H1187B98DFBC,33.6775698,"Huntington Beach, CA",-118.000537235487,Matt Costa,178,1,SOJYPBE12A58A7A994,Astair,2003,Y,"Huntington Beach, CA",Orange County,Huntington Beach,California,USA,us
AR06EB01187FB40150,37.8710283,"Berkeley, CA",-122.2726607,NOFX,144,1,SOPIKEG12A58291636,Stickin In My Eye,1992,Y,"Berkeley, CA",Alameda County,Berkeley,California,USA,us
ARR6LWJ1187FB44C8B,33.9596846,"Athens, GA",-83.3763606,R.E.M.,203,1,SOLJCCO12A6701F987,Fall On Me (Live),1995,Y,"Athens, GA",Athens-Clarke County,Athens-Clarke County Unified Government,Georgia,USA,us
AR11YJ91187B997A47,31.1170048849859,"KILLEEN, Texas",-97.7278284477154,Ayla,445,1,SOJHUUC12A6D4F71FF,Ayla,1996,Y,"KILLEEN, Texas",Bell County,Killeen,Texas,United States of America,us
ARAW99S1187B9B6EBF,31.76053,"El Paso, TX",-106.4866628,Phil Ochs,166,1,SOETBKZ12A8C13DD7C,The Trial,1986,Y,"El Paso, TX",El Paso County,El Paso,Texas,USA,us
ARL6FF81187FB5A916,36.16653400000001,"Las Vegas, NV",-115.1496835,Panic At The Disco,247,1,SOQKKPE12A8C13C2CD,Northern Downpour (Album Version),0,Y,"Las Vegas, NV",Clark County,Las Vegas,Nevada,USA,us
ARAAQLO1187B993017,40.50638185,"Perth Amboy, NJ",-74.2653263997274,Richie Sambora,290,1,SOOYGSX12A6D4F6F3F,Rosie,1991,Y,"Perth Amboy, NJ",Middlesex County,Perth Amboy,New Jersey,USA,us
ARJRB241187FB556A3,55.0702289,"Dumfries, Scotland, United Kingdom",-3.6095044,Calvin Harris,214,1,SOWMBSW12A8C13609B,Acceptable In The 80's,2006,Y,"Dumfries, United Kingdom",Dumfries and Galloway,,Scotland,United Kingdom,gb
AR06XSY1187B9B279E,-37.8136969,"Melbourne, Australia",144.9630767,Little River Band,230,1,SOFBIME12AB01898AB,Man On Your Mind,1981,Y,"Melbourne, Australia",City of Melbourne,,Victoria,Australia,au
ARGURD71187B99A1C3,42.3793179793451,Massachusetts,-72.0307630411065,Ben Taylor,244,1,SOUIEPJ12A6D4FAAF6,Someday Soon,0,Y,Massachusetts,Worcester County,,Massachusetts,United States of America,us
AR4RY4E1187B9912E5,40.71274295,New York,-74.0059502441252,Wax Poetic,333,1,SONJKPC12A8C143404,Cihangir,2008,Y,New York,New York County,New York,New York,USA,us
AR1JRJ61187B9B3F37,52.5169064,"Berlin, Germany",13.388849300000002,Hardfloor,437,1,SOOQFOY12AB018A713,Don?t Trust Chief Wiggum,0,Y,"Berlin, Germany",,Berlin,Berlin,Germany,de
ARJEOGL1187B98E9D4,50.9384792,"Cologne, Germany",6.9600289,Klee,210,1,SOUVTOG12A67ADAE5C,Ich vermiss Dich,2006,Y,"Cologne, Germany",,Cologne,North Rhine-Westphalia,Germany,de
AR3793X1187FB50CB3,54.54579405,"Middlesbrough, England",-1.23862216560452,Chris Rea,241,1,SODHVES12A6701CE6B,Driving Home For Christmas,1986,Y,"Middlesbrough, England",Middlesbrough,,England,United Kingdom,gb
AR8JO2B1187B98EBB6,40.71274295,"New York City, NY, USA",-74.0059502441252,Leftöver Crack,161,1,SORLTAN12AF72ABBFA,Life Causes Cancer,2007,Y,"New York City, USA",New York County,New York,New York,USA,us
ARANFET1187FB56607,18.23253355,"Buff Bay, Portland, Jamaica",-76.6604343,Wayne Wonder,227,1,SOCGVXG12A6D4FBC3C,All This Time,0,Y,"Buff Bay, Jamaica",Portland,,,Jamaica,jm
ARU1MVY1187FB37B73,56.65010855,"Jelgava, Latvia",23.7352482972273,Brainstorm,248,1,SONWTWU12A8C133E0A,Dying Outside,0,Y,"Jelgava, Latvia",,Jelgava,Zemgale,Latvia,lv
AR4SDA71187B9A7C97,41.2567453,Warwick NY,-74.35963424656079,Woods,194,1,SOGAJHS12A8C13C37B,How to Survive In,2006,Y,Warwick NY,Orange County,,New York,USA,us
ARPSOOQ1187B993508,59.3253228,Stockholm,18.0708713490861,Bloodbath,195,1,SONJPRU12AF72A5963,Outnumbering The Day,0,Y,Stockholm,Stockholm,,Stockholm County,Sweden,se
ARAEX7Y1187FB42D36,39.1278204109339,"Severn, MD",-76.68689868282591,Toni Braxton Featuring Shaggy,219,1,SOEXSIN12A8C133B0A,Christmas In Jamaica,2001,Y,"Severn, MD",Anne Arundel County,,Maryland,USA,us
AR0L04E1187B9AE90C,53.5456415,"Wigan, Lancashire, England",-2.6260790000000003,The Verve,360,1,SOXQYSC12A6310E908,Bitter Sweet Symphony,1997,Y,"Wigan, England",Greater Manchester,,England,United Kingdom,gb
ARIZTU51187B9991F1,40.6501525,"New York, NY [Brooklyn]",-73.9496656,Vico C,237,1,SOLVNWB12AF72AAF3A,Aquel Que Habia Muerto  Radio Edit,0,Y,"Brooklyn, New York",Kings County,New York,New York,United States of America,us
ARBDGN21187FB4C201,32.7174209,"San Diego, CA",-117.1627714,Weatherbox,187,1,SOFGXZV12AB0185E12,Two Satchels Of Light,2009,Y,"San Diego, CA",San Diego County,San Diego,California,USA,us
AR10USD1187B99F3F1,43.3247719,"Burlington, Ontario, Canada",-79.79683359999999,Silverstein,229,1,SOZEHMC12A6D4F9F30,Always And Never (Album Version),2005,Y,"Burlington, Canada",Halton Region,Burlington,Ontario,Canada,ca
ARDQQIL126A031DF10,50.0859898,Sheffield UK-England,-5.5548975,Standard Fare,143,1,SOVOZAU12AB018B9F5,Edges & Corners,2010,Y,Sheffield UKEngland,Cornwall,,England,United Kingdom,gb
ARCZC791187B991DF4,37.95753195,"Stockton, California",-121.29031657821501,Chris Isaak,158,1,SOHETKJ12A8C13BF04,Waiting For My Lucky Day (LP Version),1996,Y,"Stockton, California",San Joaquin County,Stockton,California,USA,us
AR470HW1187FB3B8DF,35.3734212040816,"Bakersfield, CA",-119.019467306122,Merle Haggard And The Strangers,165,1,SOTTXMZ12A6D4F6DB1,Folsom Prison Blues,2006,Y,"Bakersfield, CA",Kern County,Bakersfield,California,USA,us
ARJEAL11187B9A876B,18.0431311,"Mandeville, Jamaica",-77.5073146287935,Jacob Miller,326,1,SOKGMDH12AB0181F8A,Mixed Up Moods,1999,Y,"Mandeville, Jamaica",Manchester,,,Jamaica,jm
ARMQHX71187B9890D3,33.748619500000004,"Atlanta, GA",-84.3907725501786,Mastodon,654,1,SOHHANU12A58A77C66,The Czar: Usurper/Escape/Martyr/Spiral (Album Version),2009,Y,"Atlanta, GA",Fulton County,Atlanta,Georgia,United States of America,us
ARW63XP1187FB5AB99,55.86115690000001,"Glasgow, Scotland",-4.25022424655349,Primal Scream,256,1,SOEAKIB12A8AE48D12,Pills,2000,Y,"Glasgow, Scotland",Glasgow City,Glasgow,Scotland,United Kingdom,gb
ARANOZN1187B9B373E,34.05369605,"Los Angeles, CA",-118.242921218334,Descendents,140,1,SOAYYDM12AB01817E6,Orgofart,1986,Y,"Los Angeles, CA",Los Angeles County,Los Angeles,California,United States of America,us
ARWILYB1187FB37DFE,51.5073203,"London, England",-0.12765724122807,Bananarama,193,1,SOCYRUF12A67020890,Young at Heart,1983,Y,"London, England",,London,England,United Kingdom,gb
AR1QXAQ1187FB47FAC,40.6501525,"Brookyln, NY",-73.9496656,Sticky Fingaz,266,1,SODTRPJ12A8C1377E9,Oh My God,2000,Y,"Brooklyn, NY",Kings County,New York,New York,United States of America,us
AR06IFV1187B9977EC,38.6268108,"St. Louis, MO",-90.1994099468476,MU330,132,1,SOBTSMO12A8C135EDF,Cursed Again,1997,Y,"St. Louis, MO",City of Saint Louis,St. Louis,Missouri,United States of America,us
AR2A9N61187FB388CC,46.6040916893798,FRANCE,1.88847778979402,Arsis,267,1,SOBSWFO12AB0185EA9,Oh_ The Humanity,2006,Y,FRANCE,La Châtre,,Centre-Loire Valley,France,fr
ARIWB161187B9AA1D5,40.7195766,"Forest Hills, Queens, New York City, NY, USA",-73.8448686,Simon & Garfunkel,130,1,SOKWQCX12AF729F29A,Old Friends,1968,Y,"Forest Hills, Queens, New York City, NY, USA",Queens County,New York,New York,USA,us
AREMQN51187B9B7144,29.7591492,"Houston, TX",-95.3676646223039,OG Ron C & The Wreckin Yard,429,1,SOGBMVB12A8C1380F2,Freestyle 18,0,Y,"Houston, TX",Harris County,Houston,Texas,USA,us
ARL5BEN1187B98E4D9,18.4724576,"Montego Bay, Jamaica",-77.9218386,Jah Cure,287,1,SOEGPFZ12AB0180F58,Freedom,2008,Y,"Montego Bay, Jamaica",Saint James,Montego Bay,,Jamaica,jm
AROG07L1187FB4C826,56.5,Scotland,-3.75,Boards of Canada,472,1,SONSNRE12A6D4FA2F7,Happy Cycling,1996,Y,Scotland,Perth and Kinross,,Scotland,United Kingdom,gb
ARGP47U1187FB4D0EB,53.3803404,"Sheffield, Yorkshire, England",-1.4686085814418302,ABC,265,1,SOFEIEF12A6D4F7908,Say It,0,Y,"Sheffield, England",,Sheffield,England,United Kingdom,gb
ARJDZK31187B9A2E44,-33.92651970000001,Capetown South Africa,18.4245917,Freshlyground / Freshlyground,333,1,SOUWNEQ12A58A7C35F,Buttercup,2004,Y,Capetown South Africa,City of Cape Town,Cape Town,Western Cape,South Africa,za
ARHW3XF1187FB42F2B,40.71274295,"New York, NY",-74.0059502441252,Cameo,267,1,SOCCRKJ12A6D4F9178,Single Life,1985,Y,"New York, NY",New York County,New York,New York,USA,us
ARN7OQ21187FB5A6B3,33.5158175714286,"Greenwood, MS",-90.1794443673469,Furry Lewis,188,1,SOFKQMM12A8C137176,I Will Turn Your Money Green (Tk. 1),0,Y,"Greenwood, MS",Leflore County,,Mississippi,USA,us
AR1C53V1187B9B283D,40.079538624816706,Illinois,-89.4335846714036,Ion,197,1,SOHNMTC12A58A7E155,Stage,0,Y,Illinois,Logan County,,Illinois,USA,us
AR8886N1187B9B330A,41.30900735,"New Haven, CT",-72.9247661653322,Liz Phair,224,1,SOGPRTE12A67AE0990,Giving It All To You,2005,Y,"New Haven, CT",New Haven County,New Haven,Connecticut,USA,us
ARB98TO1187B98BE12,46.6040916893798,FRANCE,1.88847778979402,Herman Düne,254,1,SOTTXGM12A58A7BFA3,Someone Knows Better Than Me,2008,Y,FRANCE,La Châtre,,Centre-Loire Valley,France,fr
AR6T5PO1187B9A1022,-34.9387946,"Richmond, California, U.S.",138.561996416322,The Les Claypool Frog Brigade,347,1,SOYBXSA12AC90979C7,Ding Dong,0,Y,"Richmond, U.S.",City of West Torrens,,South Australia,Australia,au
ARP7DLV1187FB4EF07,36.8368359,California - LA,-119.7958714,Pretty Boy Floyd,179,1,SOQOPQU12A8C134960,Dept. Of Youth,0,Y,"California, LA",Fresno County,Fresno,California,USA,us
ARQ6OS81187B998B73,39.95240015,"Philadelphia, PA",-75.1629878834212,Kid Dynamite,48,1,SODASWA12AB018D737,Pits + Poisoned Apples,0,Y,"Philadelphia, PA",Philadelphia County,Philadelphia,Pennsylvania,United States of America,us
ARKAPI41187B9ACAF0,50.2978627,CANADA - Ontario,-83.0326716831416,Kinnie Starr,348,1,SOOTQKH12A8C1417B5,Alright (Blackwatch Vocal Mix),0,Y,"CANADA, Ontario",Cochrane District,Unorganized North Cochrane,Ontario,Canada,ca
ARW5YE51187FB3CCC5,39.2908833,"Baltimore, Maryland",-76.61071159999999,MISERY INDEX,208,1,SORSRIX12A81C202BA,Retaliate,2003,Y,"Baltimore, Maryland",,Baltimore,Maryland,USA,us
ARZXYRK1187B99E432,40.4168654,Madrid,-3.7043021694878,John Stevens,245,1,SOQBKAT12A81C20661,I Only Have Eyes For You (Album Version),2005,Y,Madrid,Área metropolitana de Madrid y Corredor del Henares,Madrid,Community of Madrid,Spain,es
ARXYVR61187B9A8E41,50.8104199,Steenvoorde,2.5818782,Biohazard,149,1,SOQBTYG12A8C13C9E6,Blue Blood,1990,Y,Steenvoorde,Dunkirk,,Hauts-de-France,France,fr
ARJ2PMY1187FB5B563,40.85172275,NY - Long Island,-73.0992328238247,Burning Spear,146,1,SOJIRPT12AB01877A6,Walking In Dub,2009,Y,"NY, Long Island",Suffolk County,,New York,USA,us
ARQFRTG1187FB3F003,51.0827402760847,"Dorf, Germany",10.422852665054199,Waldo's People,197,1,SOMKOPP12A8C13BD34,U Drive Me Crazy,1998,Y,"Dorf, Germany",Unstrut-Hainich-Kreis,Unstrut-Hainich,Thuringia,Germany,de
ARXGASQ1187FB3C727,40.84753875,"New York, NY [Bronx]",-73.839740055938,Camp Lo,214,1,SOMTPYO12A8C14413D,Uptown,2009,Y,"Bronx, New York",Bronx County,New York,New York,USA,us
ARXKSWE11E2835CEAE,45.5020901,Montreal/Berlin,-73.560546,The King Khan & BBQ Show,199,1,SOBGGQO12AB018728A,Tastebuds,2009,Y,"Montreal, Berlin",Urban agglomeration of Montreal,Montreal,Quebec,Canada,ca
ARTA0II1187B9AD97D,54.31202560000001,Great Britain / UK,-1.9188685,The New Mastersounds,209,1,SOEIBOP12A8C1466D0,The Tin Drum featuring Sam Bell,0,Y,"Great Britain, UK",North Yorkshire,Richmondshire,England,United Kingdom,gb
ARTVUER1187FB3905B,29.9498071,"New Orleans, LA",-90.06986640000002,Juvenile,253,1,SOHVQDA12A6D4FA508,Party (Featuring Skip),2002,Y,"New Orleans, LA",Orleans Parish,New Orleans,Louisiana,USA,us
ARIQ98H1187B98DFBC,33.6775698,"Huntington Beach, CA",-118.000537235487,Matt Costa,120,1,SOSZLSB12AB01844AD,All I Want For Christmas,2008,Y,"Huntington Beach, CA",Orange County,Huntington Beach,California,USA,us
ARYF20K1187B9B76BD,33.75007535,"ORANGE, California",-117.870426997477,George Lopez,261,1,SOUDIVN12AF72A07D7,Kids In the Store,2003,Y,"ORANGE, California",Orange County,Santa Ana,California,United States of America,us
AREUYDJ1187B9BA040,49.7799151,"Havířov, Česká republika",18.4366775,Krystof,301,1,SOBLFTH12A6BD53D38,Star,2004,Y,"Havov, esk republika",okres Karviná,,Moravia-Silesia,Czechia,cz
AR8ICRA1187B9B8A5F,42.360401,"Boston, MA, USA",-71.0576816290551,Godsmack,259,1,SOYXUDL12A582A2695,Straight Out Of Line,2003,Y,"Boston, USA",Suffolk County,Boston,Massachusetts,USA,us
ARGXXNS1187FB4BAA4,37.92577650000001,Corte Madera CA,-122.5277008,Minipop,163,1,SOTJIBZ12A58A79560,Fingerprints,2007,Y,Corte Madera CA,Marin County,,California,USA,us
ARD5QQA1187FB3CAF0,29.9498071,"New Orleans, LA",-90.06986640000002,Dr John,153,1,SOHXWPR12A6D4F3267,Clean Water,0,Y,"New Orleans, LA",Orleans Parish,New Orleans,Louisiana,USA,us
ARPK0XN1187B98A494,40.4417509,"Pittsburgh, PA",-79.99009095074841,Jules Shear,207,1,SOCVTLP12AB017DBDE,She Don't Understand You Now,0,Y,"Pittsburgh, PA",Allegheny County,Pittsburgh,Pennsylvania,USA,us
ARMJXRP1187FB461A0,39.75909,"Dayton, OH",-84.1914167,Ohio Players,429,1,SOECEFN12A6D4F6FC5,Jive Turkey,1974,Y,"Dayton, OH",Montgomery County,Dayton,Ohio,United States of America,us
AR7ICFK1187B9955FF,34.5555895227305,"Marvell, AR",-90.9129020476244,Levon Helm,208,1,SOCCEYK12AC468AFB1,False Hearted Lover Blues,2007,Y,"Marvell, AR",Phillips County,Marvell,Arkansas,USA,us
ARHATLI1187FB52C76,35.515604,"Clinton, OK",-98.9672886666667,Toby Keith,263,1,SOYWPMG12A6D4F901A,American Soldier,2003,Y,"Clinton, OK",Custer County,Clinton,Oklahoma,USA,us
AR2UQQ51187B9AC816,43.6777346,"Arles, France",4.63091895357143,Gipsy Kings,222,1,SOGTRKA12A8C137D72,Somos Gitanos,2001,Y,"Arles, France",Arles,,Provence-Alpes-Côte d'Azur,France,fr
AR5LTOU1187B98CAD9,29.9498071,New Orleans,-90.06986640000002,C-Murder/Dez,191,1,SOSOOOB12AB01871DB,Street Keep Callin' (feat. Dez),1999,Y,New Orleans,Orleans Parish,New Orleans,Louisiana,USA,us
ARAV5DQ1187B9B7629,40.2257880714243,Ohio,-82.69337823280459,John Carpenter,102,1,SOLIRPE12A6D4FB151,The Shape,1998,Y,Ohio,Licking County,,Ohio,United States of America,us
AR3FDXK1187FB3BDAD,33.1838787,Denton TX,-97.1414,Centro-matic,233,1,SOZPLMO12AF729F2B5,A Critical Display Of Snakes,2008,Y,Denton TX,Denton County,Denton,Texas,USA,us
ARQQ3PM1187FB41517,36.8368359,California - LA,-119.7958714,Catherine Feeny,153,1,SOFFLAG12A8C13C2BE,Why,2007,Y,"California, LA",Fresno County,Fresno,California,USA,us
AR0CDSK1187FB52ED6,39.531837456223705,"Paw Paw, WV",-78.45731184463541,Asleep At The Wheel,254,1,SOPQEVH12A8C135713,Let Me Go Home Whiskey,0,Y,"Paw Paw, WV",Morgan County,,West Virginia,USA,us
ARHAO311187FB3E38E,53.3504921,"Dublin, Ireland",-6.2605679166146695,Thin Lizzy,188,1,SOUONDZ12A6D4F7BD2,For Those Who Love To Live,1975,Y,"Dublin, Ireland",County Dublin,Dublin,,Ireland,ie
ARWVOHH1187FB5974B,41.50510675,"Cleveland, OH",-81.6936526499885,Screamin' Jay Hawkins,211,1,SOQLGZH12AF729B7CF,I Put a Spell on You,1956,Y,"Cleveland, OH",Cuyahoga County,Cleveland,Ohio,USA,us
AR8ICRA1187B9B8A5F,42.360401,"Boston, MA, USA",-71.0576816290551,Godsmack,304,1,SOXOURR12AB0186379,Awake,2000,Y,"Boston, USA",Suffolk County,Boston,Massachusetts,USA,us
ARNMC5U1187FB5899E,38.7449842282059,"MANASSAS, Virginia",-77.48240885327729,Puff Daddy featuring Jay-Z,234,1,SOWTIJF12A67ADA258,Do You Like It...Doo You Want It... (Album Version),1999,Y,"MANASSAS, Virginia",,Manassas,Virginia,USA,us
ARFCBZC1187B99F4F4,27.7542107909551,Florida,-81.4624241742334,Root,228,1,SOPRTVN12AB01811B9,Lykorian,0,Y,Florida,Polk County,,Florida,USA,us
AR88M4Q1187B9B752F,49.8837912911069,"Winnipeg, Manitoba, Canada",-97.16858515226579,The Weakerthans,181,1,SOIBBTP12A8C13DA70,Wellington's Wednesdays (Album Version),1997,Y,"Winnipeg, Canada",,Winnipeg,Manitoba,Canada,ca
ARPVK2A1187B9B0800,26.6161211,"Lake Worth, FL",-80.0691417,John Ralston,191,1,SOKHMOH12A8C13D4E0,Hang A Sign,0,Y,"Lake Worth, FL",Palm Beach County,,Florida,USA,us
ARZ9FGC1187B98B47D,51.749145,"St. Albans, Herts, England",-0.34209870000000003,The Zombies,252,1,SOBYNET12A58A7780B,Alone In Paradise,0,Y,"St. Albans, England",Hertfordshire,St Albans,England,United Kingdom,gb
AR227JP1187FB375BC,-0.21347510000000008,North Carolina and New York,-78.5109038,Tift Merritt,224,1,SORDPMD12A8C13941B,Broken,2008,Y,North Carolina and New York,Quito,Quito,Pichincha,Ecuador,ec
AR6HXY21187B9B3FBA,35.9133706,"Chapel Hill, NC",-79.0556864,Mojo Nixon,225,1,SOPJJTU12A8C13EF26,I Wanna Race Bigfoot Trucks,1990,Y,"Chapel Hill, NC",Orange County,,North Carolina,USA,us
AR5US1D1187B9AEB1F,53.7974469,"Leeds, England",-1.5437038,Soft Cell,324,1,SOCFHAZ12AF72A68F6,Say Hello_ Wave Goodbye,0,Y,"Leeds, England",,Leeds,England,United Kingdom,gb
ARIGPNM1187B98C744,40.8078665,"Harlem, NY",-73.9452405,Kelis Featuring will.i.am,281,1,SOLQQHM12A6D4F8F82,Weekend (Explicit) (Feat. will.i.am),2006,Y,"Harlem, NY",New York County,New York,New York,USA,us
AR5LE4K1187FB4C3BE,38.910780755102,"Indianapolis, IN",-94.3821296326531,John Hiatt,239,1,SOFZNZA12A6D4F8B0D,Memphis In The Meantime,1987,Y,"Lees Summit, MO",Jackson County,Lee's Summit,Missouri,USA,us
ARI7BJB1187FB48744,40.6501525,"Brooklyn, NY",-73.9496656,The Dirty Projectors,257,1,SOODXHY12AB018617D,D. Henley's Dream,2005,Y,"Brooklyn, NY",Kings County,New York,New York,United States of America,us
ARXDFN01187B9AE80E,38.8951076,Washington,-77.03654809999998,The Presidents of the United States of America,237,1,SOMUJGD12A8C13EC6B,5_500 Miles,2004,Y,Washington,,Washington,District of Columbia,USA,us
ARQCDBP1187B997D36,36.8368359,California - LA,-119.7958714,Grant Lee Phillips,286,1,SOZRCZD12A8C13FEF0,Far End of the Night,2004,Y,"California, LA",Fresno County,Fresno,California,USA,us
ARBIY631187B9A4184,36.574188,JAPAN,139.238791,The Antiserum & Ripple,305,1,SOISUKJ12AB0186988,Blaze It,0,Y,JAPAN,,Kiryu City,Gunma Prefecture,Japan,jp
ARG33GL1187B98C982,59.64576525,"Homer, Alaska",-151.54031637661,Lincoln Brewster,446,1,SOUNOUK12A8C145CFD,You Are Good,2005,Y,"Homer, Alaska",Kenai Peninsula,Homer,Alaska,USA,us
AROGKSV1187FB5BB2C,40.71274295,NY - New York City,-74.0059502441252,Fireflies Feat. Alexandra Prince,189,1,SOKAAGP12A8AE49078,I Can't Get Enough,0,Y,"NY, New York City",New York County,New York,New York,USA,us
ARML8X41187B990644,55.86115690000001,"Glasgow, Scotland",-4.25022424655349,Simple Minds,271,1,SOWNSAO12A8C135E3B,4,1995,Y,"Glasgow, Scotland",Glasgow City,Glasgow,Scotland,United Kingdom,gb
ARZGTK71187B9AC7F5,36.2516475,"California, USA",-118.852583,Eels,177,1,SOHIHQF12AF729FC01,Everything's Gonna Be Cool This Christmas,1998,Y,"California, USA",Tulare County,,California,USA,us
ARD6NTO1187B994ED1,50.0159643306669,"Piapot Reserve, Saskatchewan, Can",-109.075972883566,Buffy Sainte-Marie,179,1,SOBIKQT12AB018461B,Sometimes when I Get To Thinkin',1968,Y,"Piapot Reserve, Canada",Rural Municipality of Swift Current No. 137,,Saskatchewan,Canada,ca
AR5K66E1187B9B8534,36.8368359,California - LA,-119.7958714,Le Mans,84,1,SOCVYCP12AC9072C12,Astronautas,1993,Y,"California, LA",Fresno County,Fresno,California,USA,us
ARIROQG12592CD9709,32.7174209,San Diego CA,-117.1627714,Blessure Grave,142,1,SONVLND12AB0189326,Learn To Love The Rope,2010,Y,San Diego CA,San Diego County,San Diego,California,USA,us
ARZXNFV1187B9BA2CD,30.9334574113364,"Lettsworth, LA",-91.7048546898806,Buddy Guy,445,1,SOMLMTI12AB018597D,Breaking Out On Top,1981,Y,"Lettsworth, LA",Pointe Coupee Parish,,Louisiana,USA,us
AREHYMC1187B9ACB28,48.84415870000001,CORSE / PARIS,2.3590142000000003,Barbara Carlotti,190,1,SOHXWFQ12A8C13B761,Bête Farouche,2008,Y,"CORSE, PARIS",Paris,Paris,Ile-de-France,France,fr
ARWH16S1187FB55099,34.990001499940014,"Cherry Hill, AR",-92.87433337238173,Bob Dorough,314,1,SOMUKPU12A6D4F8295,Fish For Supper,0,Y,"Cherry Hill, AR",Perry County,Perryville,Arkansas,USA,us
ARJS9GN1187FB578C4,43.653981,Toronto,-79.3872085434623,Deadmau5,234,1,SOFYFCL12AB0181DC2,The Oshawa Connection,2006,Y,Toronto,,Toronto,Ontario,Canada,ca
AR4KBWX1187FB5A718,55.86115690000001,"Glasgow, Scotland",-4.25022424655349,H2O,141,1,SOIMVQX12A8C13A7FF,Liberate,0,Y,"Glasgow, Scotland",Glasgow City,Glasgow,Scotland,United Kingdom,gb
ARD92TH1187FB57ACD,30.774897,"Marianna, FL",-85.226729,Bobby Goldsboro,145,1,SOTJZWH12A6D4F9E89,Me Japanese Boy I Love You (1991 Digital Remaster),0,Y,"Marianna, FL",Jackson County,,Florida,USA,us
ARFLHWV1187FB4E77F,33.83121,"Jasper, AL",-87.277558,Sandy Posey,125,1,SOCWCNX12AB0185027,When Will I Be Loved,1990,Y,"Jasper, AL",Walker County,,Alabama,USA,us
ARWT91C1187B9ACEAA,41.2224111,Milford USA,-73.0570803,Neil Young,525,1,SOYUFYW12A8C1395FE,Tonight's The Night (1991 Live LP Version),0,Y,Milford USA,New Haven County,,Connecticut,USA,us
ARSY9N31187B9AD38A,51.5073203,"London, England",-0.12765724122807,Paul Oakenfold,180,1,SOYDADX12A8C13F377,The Virus,0,Y,"London, England",,London,England,United Kingdom,gb
AROSI8L1187B9ACD43,34.05369605,"Los Angeles, CA",-118.242921218334,Ice Cube,198,1,SOBHRGE12A8C13C81D,Gangsta's Fairytale 2 (Explicit),0,Y,"Los Angeles, CA",Los Angeles County,Los Angeles,California,United States of America,us
AROWFQ811C8A4149FC,18.2222046923,Puerto Rico,-66.4146987592963,Kany Garcia,235,1,SOAKXHF12AF729CBBC,Hoy Ya Me Voy,2007,Y,Puerto Rico,Orocovis,,Puerto Rico,USA,us
ARI5E6U1187B9B525A,39.33305130601821,"Chillicothe, OH",-82.98240382678229,Nancy Wilson,159,1,SOFDEJA12A8C13A055,(You Don't Know) How Glad I Am (2001 Digital Remaster),0,Y,"Chillicothe, OH",Ross County,Chillicothe,Ohio,United States of America,us
AR944BA1187B9B7723,51.5706932172406,"Leytonstone, East London",0.00623847372802387,Boy Kill Boy,280,1,SOXSPAK12A8C140120,Kidda Kidda,2008,Y,"Leytonstone, East London",,London,England,United Kingdom,gb
ARJXVSV1187B9A252F,51.5881813,"Newport, U.K.",-2.9974814,Goldie Lookin Chain,198,1,SOHAVRS12AB01815D0,Song for Kelly,2008,Y,"Newport, U.K.",,Newport,Wales,United Kingdom,gb
AR2XI6G1187B9AE7DA,40.84753875,"Bronx, NY",-73.839740055938,Fat Joe,235,1,SOOERYW12AB0185A53,Prove Something (explicit album version),2002,Y,"Bronx, NY",Bronx County,New York,New York,USA,us
ARF6Z2H1187B9914BB,36.2516475,California,-118.852583,Yellowjackets,293,1,SOOKVPC12AB018A856,Gabriela Rose,0,Y,California,Tulare County,,California,USA,us
ARGOOFV1241B9C54EA,41.8753754,Chicago IL,-87.6248273616119,Cast Spells,142,1,SOVXSCN12AB018A54E,War Story Hellos,0,Y,Chicago IL,Cook County,Chicago,Illinois,United States of America,us
ARZQYSZ1187FB3AC39,52.80616015,"Staten Island, NY",-2.11636494087526,Ghostface Killah,251,1,SOBUQCD12A8C132DC9,Ghost Showers,2002,Y,"Stafford, England",Staffordshire,,England,United Kingdom,gb
ARJBWQI1187B9B17D1,28.5421097,"Orlando, FL",-81.37903879999998,Trivium,678,1,SOAEJTI12A8C145051,Shogun [with fade_ for special edition],2008,Y,"Orlando, FL",Orange County,Orlando,Florida,USA,us
AR8B1WY1187FB38366,40.85172275,"Long Island, NY",-73.0992328238247,Rakim,79,1,SONDBYI12A6310D81C,Outro,1997,Y,"Long Island, NY",Suffolk County,,New York,USA,us
ARD3Y081187B9ABB07,55.86115690000001,"Glasgow, Scotland",-4.25022424655349,Del Amitri,224,1,SONNEVG12A6D4F7F97,The Return Of Maggie Brown,1990,Y,"Glasgow, Scotland",Glasgow City,Glasgow,Scotland,United Kingdom,gb
ARW2U4O1187FB4408B,40.71274295,New York NY,-74.0059502441252,Andrew W.K.,127,1,SOLVYRN12AF72A9C09,Can You Dance With Me?,2006,Y,New York NY,New York County,New York,New York,USA,us
ARILMD31187B99B369,51.4505598,"Eltham, Kent, England",0.0539727,Boy George,389,1,SODJPQG12A8C13EE45,Out Of Fashion,0,Y,"Eltham, England",,London,England,United Kingdom,gb
ARDGES11187B9B7DDF,54.9738095,Newcastle,-1.61316585,Roxy Music,320,1,SOCIPQR12A6D4F73DA,Can't Let Go (Live) (1999 Digital Remaster),0,Y,Newcastle,Tyne and Wear,Newcastle upon Tyne,England,United Kingdom,gb
ARCMOUY1187FB46CFC,29.9498071,"New Orleans, LA",-90.06986640000002,The Neville Brothers,195,1,SOVETUH12A8C133196,I'll Take My Chances,0,Y,"New Orleans, LA",Orleans Parish,New Orleans,Louisiana,USA,us
AR6CHEQ1187B9B846F,34.4222924,"Santa Barbara, CA",-119.702561368735,Mad Caddies,78,1,SOOKRAN12A6D4FB3F7,Contraband (Live),2004,Y,"Santa Barbara, CA",Santa Barbara County,Santa Barbara,California,USA,us
ARM7TNC1187B991254,52.3734085,"Amsterdam, Netherlands",4.898273760600531,Lefties Soul Connection,305,1,SOJQFVW12A8C13BD9B,Move What You Got,2007,Y,"Amsterdam, Netherlands",,Amsterdam,North Holland,The Netherlands,nl
AR1LIGG1187FB3BAB8,47.3717005,"Zurich, Switzerland",8.5422725939889,Thomas Fehlmann,266,1,SOOJXFO12A6D4F5552,Slinky,2004,Y,"Zurich, Switzerland",District Zurich,Zurich,Zurich,Switzerland,ch
AR6LLZ51187B9A427F,40.079538624816706,Illinois,-89.4335846714036,Airiel,254,1,SOVFKPX12A8C1352B8,Rainflower,2003,Y,Illinois,Logan County,,Illinois,USA,us
AR01SCU1187B9A693C,42.360401,"Boston, MA",-71.0576816290551,Street Dogs,188,1,SOTJKUJ12A6D4FB577,Last Call,2003,Y,"Boston, MA",Suffolk County,Boston,Massachusetts,USA,us
ARTMZYW1187B9A7ECB,29.7591492,Houston TX,-95.3676646223039,Hayes Carll,149,1,SOYCUPI12A8C141A83,Wild As A Turkey,2008,Y,Houston TX,Harris County,Houston,Texas,USA,us
ARB2FS51187FB42679,32.0910960453948,"Corsicana, TX",-96.4645844704804,Billy Joe Shaver,161,1,SOGRQYN12A8AE47828,Feliz Navidad (W/ Flaco Jimenez),2005,Y,"Corsicana, TX",Navarro County,Corsicana,Texas,USA,us
AREEE851187FB4762A,52.5005468,The Netherlands,5.7484515,The Dreamside,497,1,SOCZXOO12A8C136E36,This Quest,1996,Y,The Netherlands,,,Flevoland,Netherlands,nl
AR6CWI81187FB5C0CB,39.7392115,"Denver, Colorado",-104.984846745298,Breathe Carolina,92,1,SOYPJRX12A8C1434E1,You Wish [Interlude],0,Y,"Denver, Colorado",Denver County,Denver,Colorado,USA,us
ARJWPFY12086C12521,38.8951076,Washington DC,-77.03654809999998,Title Tracks,223,1,SODFWCO12AB018C18E,Hello There,2010,Y,Washington DC,,Washington,District of Columbia,USA,us
ARANFET1187FB56607,18.23253355,"Buff Bay, Portland, Jamaica",-76.6604343,Wayne Wonder,187,1,SOIUUIY12A6D4FBC3A,Hold On,0,Y,"Buff Bay, Jamaica",Portland,,,Jamaica,jm
ARWNWCW1187FB52E6F,42.360401,"Boston, MA",-71.0576816290551,Susan Tedeschi,222,1,SOMKVPT12A8C137916,Evidence,2005,Y,"Boston, MA",Suffolk County,Boston,Massachusetts,USA,us
ARYN2M61187B995BD6,6.2443897,"Medellin, Colombia",-75.5733822,Juanes,332,1,SOBXWEW12AB017FB9B,Rebelion,0,Y,"Medellin, Colombia",Zona Urbana Medellín,Medellín,Antioquia,Colombia,co
ARILMD31187B99B369,51.4505598,"Eltham, Kent, England",0.0539727,Boy George,258,1,SOINFMU12A6D4F835D,Just Ain't Enough,0,Y,"Eltham, England",,London,England,United Kingdom,gb
AR4XX0N1187FB45C21,34.000671600000004,"Columbia, SC",-81.0348652,Iron And Wine,571,1,SOEJKBA12A8C144192,The Trapeze Swinger (Album),0,Y,"Columbia, SC",Richland County,Columbia,South Carolina,USA,us
ARSQDUN1187B98D7D7,40.6021323,allentown Pennsylvania USA,-75.4712664,EPMD,159,1,SOZLLLT12A3F1EA275,Mr. Bozack,1990,Y,allentown Pennsylvania USA,Lehigh County,Allentown,Pennsylvania,USA,us
ARJMW0U1187B9928B6,51.5073203,"London, England",-0.12765724122807,The Sabres Of Paradise,281,1,SOKXGKI12AB017D5FB,Planet D (Portishead Remix),1995,Y,"London, England",,London,England,United Kingdom,gb
ARHSCD11187B9AC120,44.95025612380979,"St. Paul, MN",-93.1013991317773,Mitch Hedberg,113,1,SOCEYKC12A6D4F7B9D,Teeth (LP Version),2003,Y,"St. Paul, MN",Ramsey County,Saint Paul,Minnesota,USA,us
ARWXSPO1241B9C6B1C,36.85312525,Virginia Beach,-75.9773366527948,Pharrell,280,1,SOLYEWM12A6D4F74A6,Best Friend (Explicit),2006,Y,Virginia Beach,,Virginia Beach,Virginia,USA,us
ARYGSFW1187FB519B1,54.703777147332296,United Kingdom,-3.2779896532852297,Mike And The Mechanics,283,1,SOBDCWG12A6D4F832E,Nobody's Perfect,1988,Y,United Kingdom,Cumbria,Allerdale,England,United Kingdom,gb
ARIRLGQ1187FB45B7E,51.59946885,"Pontypridd, Wales",-3.34173436450246,Lostprophets,260,1,SOXIOLU12A6D4FB16F,We Still Kill The Old Way,2004,Y,"Pontypridd, Wales",Rhondda Cynon Taf,,Wales,United Kingdom,gb
AR5DL8Z1187B992721,52.07490479999999,"Den Haag, The Netherlands",4.269685900000002,I-F,339,1,SOHUHXU12A8C138196,Disko Slique (Instrumental),1998,Y,"Den Haag, The Netherlands",,The Hague,South Holland,Netherlands,nl
ARH2RTQ1187B9AFF57,44.970839672957105,"Minneapolis, MN",-93.2683221991986,Husker Du,278,1,SOLPEGI12AF72A2188,Too Far Down,1986,Y,"Minneapolis, MN",Hennepin County,Minneapolis,Minnesota,USA,us
AR7H9U01187FB390F5,29.9498071,"New Orleans, LA",-90.06986640000002,Terence Blanchard,79,1,SOBEAOZ12A6D4FB17B,Nice Talking to You,2006,Y,"New Orleans, LA",Orleans Parish,New Orleans,Louisiana,USA,us
ARDGIBN1187B9B77E6,38.6268108,"St. Louis, MO",-90.1994099468476,St. Lunatics,206,1,SONCUTB12A670214AC,Boom D Boom,2001,Y,"St. Louis, MO",City of Saint Louis,St. Louis,Missouri,United States of America,us
ARMD3XX1187B9ACF84,34.05369605,"Los Angeles, CA",-118.242921218334,Cypress Hill,248,1,SOGDTEM12A8C13D215,How I Could Just Kill A Man,1991,Y,"Los Angeles, CA",Los Angeles County,Los Angeles,California,United States of America,us
ARY0Q4H1187FB4F3CF,54.9738095,"Newcastle, Tyne and Wear, England",-1.61316585,Dubstar,279,1,SOMIIFE12A6BD53717,Just A Girl She Said,0,Y,"Newcastle, England",Tyne and Wear,Newcastle upon Tyne,England,United Kingdom,gb
ARGCBAJ1187FB3F481,30.3321063238938,"Jacksonville, FL",-81.6556678833186,Shinedown,240,1,SOODAJI12A6D4FB0C8,Sin With A Grin (Album Version),2008,Y,"Jacksonville, FL",Duval County,Jacksonville,Florida,USA,us
ARW0Z9V1187B9A0699,18.2139875,"Westmoreland, Jamaica",-77.9753907,Peter Tosh,238,1,SOLVUQB12A6D4F7DF3,Soon Come (2002 Digital Remaster),1978,Y,"Westmoreland, Jamaica",Westmoreland,,,Jamaica,jm
ARV3CRH1187B9A1B21,37.8710283,"Berkeley, CA",-122.2726607,Green Day,340,1,SOWQROJ12A8AE47400,Wake Me Up When September Ends (Live at Foxboro_ MA 9/3/05),2005,Y,"Berkeley, CA",Alameda County,Berkeley,California,USA,us
ARWYPNT1187B98E873,34.05369605,Los Angeles CA,-118.242921218334,Kaskade,229,1,SOSZHZH12A8C139FCB,I'll Never Dream,2008,Y,Los Angeles CA,Los Angeles County,Los Angeles,California,United States of America,us
ARSW5F51187FB4CFC9,47.6038904,"Seattle, WA",-122.330098649484,Alice In Chains,256,1,SOABLAF12AB018E1D9,Lesson Learned,2009,Y,"Seattle, WA",King County,Seattle,Washington,USA,us
ARF9EI11187B9AB66C,35.672517,North Carolina,-79.0388229,9th Wonder featuring Defcon_ Phonte,289,1,SOSCKEF12AB0181D6F,Almost Genuine,0,Y,North Carolina,Chatham County,,North Carolina,United States of America,us
AR6AGJV1187FB504BA,34.7692312,"Toyohashi, Japan",137.39157759999998,Kitaro,81,1,SOXDEEZ12A6D4FBB9A,Village Attack/ The Arrest,1993,Y,"Toyohashi, Japan",,Toyohashi,Chubu Region,Japan,jp
ARIQXZL1187B99AE6A,30.3321063238938,"Jacksonville, FL",-81.6556678833186,Whole Wheat Bread,192,1,SOSZTNS12A8C13CE1E,Untitled,2005,Y,"Jacksonville, FL",Duval County,Jacksonville,Florida,USA,us
AR2QIVJ1187B9AF497,33.748619500000004,"Atlanta, GA",-84.3907725501786,YoungBloodZ Featuring Cutty,243,1,SOQNKDT12A8C1412CA,Spending Some Change Featuring Cutty,2005,Y,"Atlanta, GA",Fulton County,Atlanta,Georgia,United States of America,us
ARH39ZK1187B9ABC22,37.7792929,California - SF,-122.41926032381001,Girl Talk,136,1,SOZWNXJ12AC960A3AC,Unicorn Vs. Gravity,0,Y,"California, SF",San Francisco City and County,San Francisco,California,United States of America,us
ARD7TVE1187B99BFB1,36.8368359,California - LA,-119.7958714,Casual,259,1,SOQLGFP12A58A7800E,OAKtown,0,Y,"California, LA",Fresno County,Fresno,California,USA,us
AR3793X1187FB50CB3,54.54579405,"Middlesbrough, England",-1.23862216560452,Chris Rea,287,1,SOMUMJA12A6701CE69,The Blue Cafe,1998,Y,"Middlesbrough, England",Middlesbrough,,England,United Kingdom,gb
ARVFTA41187B9963CD,36.8368359,California - LA,-119.7958714,Patrick Park,183,1,SONABZR12A58A7F2BA,Everyone's in Everyone,2007,Y,"California, LA",Fresno County,Fresno,California,USA,us
ARZ9FGC1187B98B47D,51.749145,"St. Albans, Herts, England",-0.34209870000000003,The Zombies,152,1,SOUTFFK12AB0184613,I Know She Will,1974,Y,"St. Albans, England",Hertfordshire,St Albans,England,United Kingdom,gb
AR41HI11187B98F65A,42.368385147313,"Livonia, MI",-83.3524435674623,His Name Is Alive,267,1,SONKLID12A8C145771,The Time Falling Bodies Take To Light,1993,Y,"Livonia, MI",Wayne County,Livonia,Michigan,United States of America,us
ARBEBBY1187B9B43DB,29.652138800000003,"Gainesville, FL",-82.3247199,Tom Petty,236,1,SOFFKZS12AB017F194,A Higher Place (Album Version),1994,Y,"Gainesville, FL",Alachua County,City of Gainesville Municipal Boundaries,Florida,USA,us
ARVG8YI1187FB4CBA7,39.083345,"Covington, Kentucky",-84.5078578290055,Adrian Belew,198,1,SORTTZL12AB018C154,Men In Helicopters,1990,Y,"Covington, Kentucky",Kenton County,,Kentucky,USA,us
AR5QW6F1187B9A7E4C,45.9912483588964,Minnesota,-94.61133812884192,Excel,143,1,SOTPULV12AB017DED5,Never Look Away,0,Y,Minnesota,Morrison County,,Minnesota,USA,us
ARCT5P61187FB3D950,39.7848239629081,United States,-100.445877598878,The Impressions,159,1,SOJCFUI12A6D4FC28C,The Girl I Find (LP Version),0,Y,United States,Decatur County,,Kansas,USA,us
ARUWB5W1187B98D7A1,60.1674653,"Helsinki, Finland",24.9425458,Ensiferum,291,1,SOCOQUZ12AB0181A1E,Warrior's Quest,1999,Y,"Helsinki, Finland",Helsinki sub-region,Helsinki,Southern Finland,Finland,fi
AR3YPUN1187B9B3089,60.2507703609861,Malmö,25.0086371366289,A.C.T,33,1,SOMBQJN12AB0183DA2,Concluding Speech,1999,Y,Malm,Helsinki sub-region,Helsinki,Southern Finland,Finland,fi
ARIWB161187B9AA1D5,40.7195766,"Forest Hills, Queens, New York City, NY, USA",-73.8448686,Simon & Garfunkel,194,1,SOTETIO12A8151CA26,Citizen Of The Planet,2004,Y,"Forest Hills, Queens, New York City, NY, USA",Queens County,New York,New York,USA,us
AR6FLVM1187B9B6F46,40.85172275,"Long Island, NY",-73.0992328238247,Brian Setzer,126,1,SOUIBGT12A6D4F99C1,Glad All Over,2005,Y,"Long Island, NY",Suffolk County,,New York,USA,us
AR9OEB71187B9A97C6,53.53594205,"Edmonton, Alberta, Canada",-113.507461017281,Faunts,397,1,SOFIUVJ12A8C13C296,Will You Tell Me Then,2005,Y,"Edmonton, Canada",,Edmonton,Alberta,Canada,ca
ARIOZCU1187FB3A3DC,34.88456179999999,"Hamlet, NC",-79.69369820000001,JOHN COLTRANE,220,1,SOCEMJV12A6D4F7667,Giant Steps (Alternate Version_ Take 5_ Alternate),0,Y,"Hamlet, NC",Richmond County,Hamlet,North Carolina,USA,us
AREH0O41187FB4C405,37.8042763,Oakland,-122.2716657,Skinlab,311,1,SOTMKDG12A67ADAB35,Race Of Hate,1997,Y,Oakland,Alameda County,Oakland,California,USA,us
ARWB3G61187FB49404,39.2086029,"Hamilton, Ohio",-84.5501767981554,Steve Morse,363,1,SODAUVL12A8C13D184,Prognosis,2000,Y,"Hamilton, Ohio",Hamilton County,Cincinnati,Ohio,USA,us
AR5T40Y1187B9996C6,65.58302775,"Lulea, Sweden",22.146246091884603,The Bear Quartet,249,1,SOAPVNX12AB0187625,I Remember Nights Wide Open,1998,Y,"Lulea, Sweden",Luleå,Luleå,Norrbotten County,Sweden,se
ARZGTK71187B9AC7F5,36.2516475,"California, USA",-118.852583,Eels,158,1,SOTDCIR12AB0184574,I Need A Mother,2010,Y,"California, USA",Tulare County,,California,USA,us
ARKYZCL12086C11422,51.5073203,London UK-England,-0.12765724122807,Chew Lips,153,1,SOVRZZJ12AB018E1D5,Two Hands,2010,Y,London UKEngland,,London,England,United Kingdom,gb
AROCXO21187FB4799B,40.85172275,"Long Island, NY",-73.0992328238247,Bayside,244,1,SOVWFFJ12A6D4FCC31,Landing Feet First (Album Version),0,Y,"Long Island, NY",Suffolk County,,New York,USA,us
ARP4J5Q1187B99171D,36.8368359,California - LA,-119.7958714,Shai,234,1,SONRVSA12A6D4F7A88,Will I Find Someone,1995,Y,"California, LA",Fresno County,Fresno,California,USA,us
ARCVKG01187B9B3273,31.055809344875197,"Belton, TX",-97.4639313299229,Flyleaf,194,1,SOAPAQT12AB017D7D4,Set Apart This Dream,2009,Y,"Belton, TX",Bell County,Belton,Texas,USA,us
ARJB8QW1187B9B059E,54.703777147332296,UK,-3.2779896532852297,Blessed By a Broken Heart,247,1,SOTQRAP12A8C137193,Show Me What You Got,2008,Y,UK,Cumbria,Allerdale,England,United Kingdom,gb
ARNDQZ61187FB4D762,51.9631755,Québec,-75.06536539651309,Les 2 Tom,186,1,SONYARE12AB01900A0,Merci (avec Accrophone),2006,Y,Qubec,Eeyou Istchee James Bay,,Quebec,Canada,ca
ARCIDJA1187FB589B7,49.26088995,Vancouver BC,-123.113949636515,Matthew Good,446,1,SORNBHC12A6D4FD262,Avalanche,2003,Y,Vancouver BC,Metro Vancouver Regional District,Vancouver,British Columbia,Canada,ca
ARQMIUX11E8F5C0EED,45.01061775,Stanstead Quebec Canada,-72.09731055971508,Trash Fashion,275,1,SOZPORN12AB01832FE,Rave Dave,0,Y,Stanstead Quebec Canada,Memphrémagog,Stanstead (Ville),Quebec,Canada,ca
ARVNNXD1187B9AE50D,38.8951076,"Washington, D.C.",-77.03654809999998,Marvin Gaye,231,1,SOFQTGG127D4A6DCB1,What's Going On,1971,Y,"Washington, D.C.",,Washington,District of Columbia,USA,us
AROGSGT1187B9BA0BB,29.9498071,"New Orleans, LA",-90.06986640000002,Al Hirt,169,1,SOYLJDE12AC468AB63,Lazy River,0,Y,"New Orleans, LA",Orleans Parish,New Orleans,Louisiana,USA,us
ARJ9B1V1187FB4DD1F,41.8753754,Chicago IL,-87.6248273616119,Kid Sister,277,1,SOFDHHB12AB0187788,Daydreaming [Jakwob Remix],2009,Y,Chicago IL,Cook County,Chicago,Illinois,United States of America,us
AR6C8EJ1187FB3F473,-21.12012355," Ubá, Minas Gerais",-42.942597380451105,Nelson Ned,200,1,SOAXABK12A8C13C76F,A Mi No Me Importa,0,Y,"Ub, Minas Gerais",Microrregião Ubá,Ubá,Minas Gerais,Brazil,br
ARJZKZB1187B98E11A,39.7848239629081,USA,-100.445877598878,The Boswell Sisters,173,1,SOWELFL12AB01858DE,That's How Rhythm Was Born,2001,Y,USA,Decatur County,,Kansas,USA,us
ARD2NDU1187B99B615,42.360401,"Boston, MA",-71.0576816290551,Dropkick Murphys,196,1,SOQGZBE12A8C139160,Bloody Pig Pile (Live),2002,Y,"Boston, MA",Suffolk County,Boston,Massachusetts,USA,us
ARUUP451187B9AF56E,51.5073203,"London, England",-0.12765724122807,Wire,237,1,SODQTSE12A6310D90B,Strange,1977,Y,"London, England",,London,England,United Kingdom,gb
AR19IRN1187FB4065B,23.6014054,Taiwan,120.8317207,Sylvan,492,1,SODHLVB12AB018CB79,Timeless Traces (Album Version),0,Y,Taiwan,Nantou County,,Taiwan Province,TW,tw
ARAODJH1187B990CEE,40.9712920780376,Pennsylvania,-77.7283279750352,Terrell,199,1,SOHSZVC12AB0186C01,Whitley Flats,0,Y,Pennsylvania,Centre County,Howard township,Pennsylvania,USA,us
ARDJAPU1187B9B4D48,33.544175,"Stockbridge, GA",-84.23378100000002,Collective Soul,239,1,SOMKHZP12A58A792AA,Fuzzy,2009,Y,"Stockbridge, GA",Henry County,,Georgia,USA,us
ARNJ9M91187FB3906D,35.4731101,"Oklahoma City, OK",-97.517058776047,Charlie Hall,339,1,SONKHIU12A6D4FC61C,Priceless Treasure (On The Road To Beautiful Album Version),2003,Y,"Oklahoma City, OK",Oklahoma County,Oklahoma City,Oklahoma,USA,us
ARSEMJF1187FB5641E,59.6763050205222,Sweden,14.524291189124,The Hellacopters,230,1,SOJOVBQ12A6D4F96B6,A Heart Without A Home,2000,Y,Sweden,Hällefors,,Örebro County,Sweden,se
AROBERX1187B9B437A,40.6501525,"Brooklyn, NY",-73.9496656,Stars Like Fleas,264,1,SOUYCPO12AAF3B3E0B,You Are My Memoir,2007,Y,"Brooklyn, NY",Kings County,New York,New York,United States of America,us
AR6PJ8R1187FB5AD70,10.98113355,"Barranquilla, Colombia",-74.8011577444653,Shakira,148,1,SOSMXVH12A58A7CA6C,Pienso En Ti,1995,Y,"Barranquilla, Colombia",Barranquilla,Barranquilla,Atlántico,Colombia,co
ARKGBWV1187B988D5E,33.5158175714286,"Greenwood, MS",-90.1794443673469,Mulgrew Miller,383,1,SOLTODC12AC3DF4A9F,Ev'ry Time We Say Goodbye,1998,Y,"Greenwood, MS",Leflore County,,Mississippi,USA,us
ARE65ST1187FB4F994,43.653981,TORONTO,-79.3872085434623,MSTRKRFT / JFK / AL P / Jahmal Tonge,217,1,SOHILRE129F06B7511,Breakaway,2009,Y,TORONTO,,Toronto,Ontario,Canada,ca
AR8LMZM1187B9A8160,29.7591492,"Houston, TX",-95.3676646223039,Brooke Valentine,261,1,SORCBRS12A8C138350,Taste Of Dis (Explicit Version),2005,Y,"Houston, TX",Harris County,Houston,Texas,USA,us
AREPD8D1187FB3F5BC,29.652138800000003,"Gainesville, FL",-82.3247199,Sister Hazel,195,1,SOKMFTY12AB0183216,Walls And Cannonballs (Album),2010,Y,"Gainesville, FL",Alachua County,City of Gainesville Municipal Boundaries,Florida,USA,us
AR7OA5G1187B98D3A0,42.33155005,"Detroit, MI",-83.0465512,Sufjan Stevens,52,1,SOOMNEP12A8C140050,The First Noel,2006,Y,"Detroit, MI",Wayne County,Detroit,Michigan,USA,us
AREUYDJ1187B9BA040,49.7799151,"Havířov, Česká republika",18.4366775,Krystof,262,1,SOTKKSP12A6BD53D32,Prvni vesela,2006,Y,"Havov, esk republika",okres Karviná,,Moravia-Silesia,Czechia,cz
ARSSD0T1187B9B5C45,38.6268108,"St. Louis, MO",-90.1994099468476,Ellen Foley,219,1,SOYBWQI12A8C136625,What's A Matter Baby,1994,Y,"St. Louis, MO",City of Saint Louis,St. Louis,Missouri,United States of America,us
AR5AMEV1187FB563FA,39.95240015,Philadelphia PA,-75.1629878834212,A Sunny Day In Glasgow,283,1,SOIHDHD12AB017C6A3,The Best Summer Ever,2006,Y,Philadelphia PA,Philadelphia County,Philadelphia,Pennsylvania,United States of America,us
ARG4J2T1187FB3A8B8,42.360401,Mass. - Boston,-71.0576816290551,Lori McKenna,240,1,SONYLIT12A8C13C220,Drinkin' Problem (Album Version),2007,Y,"Mass., Boston",Suffolk County,Boston,Massachusetts,USA,us
ARNBYCT1187B9AA090,39.5354255,"Bel Air, MD",-76.3491915905639,xLooking Forwardx,77,1,SOHYGLL12A8C142CEB,I Ain't Mad At Cha,2005,Y,"Bel Air, MD",Harford County,,Maryland,United States of America,us
ARD2NDU1187B99B615,42.360401,"Boston, MA",-71.0576816290551,Dropkick Murphys,203,1,SOQCXSG12A8C13949F,Fortunate Son (Live),2002,Y,"Boston, MA",Suffolk County,Boston,Massachusetts,USA,us
AREEAVN1187FB5BC58,51.5073203,"London, England",-0.12765724122807,The Feeling,313,1,SOJVSUI12A8C144B82,She's Gone,2008,Y,"London, England",,London,England,United Kingdom,gb
ARSFKG71187FB3D66F,33.5901364,"Laurel Canyon, CA",-117.7677024,Crosby_ Stills & Nash,257,1,SOALFUO12AF72A4B98,Long Time Gone,1969,Y,"Laurel Canyon, CA",Orange County,,California,United States of America,us
ARVTBDO1187B98AA00,33.9596846,"Athens, GA",-83.3763606,Madeleine Peyroux,178,1,SOLYRRS12A58A7BF91,J'Ai Deux Amours,2004,Y,"Athens, GA",Athens-Clarke County,Athens-Clarke County Unified Government,Georgia,USA,us
AR0Y6CY1187FB57349,-22.9112229541693,"Rio de Janeiro, Brazil",-43.2093539653621,Jorge Ben,140,1,SOFOZRT12AB017F1CA,Quero Esquecer Você,1963,Y,"Rio de Janeiro, Brazil",Microrregião Rio de Janeiro,Rio de Janeiro,Rio de Janeiro,Brazil,br
ARJKLRZ1187FB3CD5D,40.6501525,Brooklyn NY,-73.9496656,Tigercity,229,1,SOWPDOT12A8C13A1C7,Other Girls,0,Y,Brooklyn NY,Kings County,New York,New York,United States of America,us
ARIJE1A1187B9A458D,36.9793344745617,"Newport News, Virginia",-76.4323792052167,Ella Fitzgerald,380,1,SOHCLBE12A6D4F8A42,Four Or Five Times (Medley) (1999 Digital Remaster),1968,Y,"Newport News, Virginia",,Newport News City,Virginia,USA,us
ARHJMXS1187FB464C8,28.5421097,"Orlando, FL",-81.37903879999998,Between The Trees,232,1,SODPIEA12A8C146115,The Greatest of These (A Little Love),2006,Y,"Orlando, FL",Orange County,Orlando,Florida,USA,us
ARA3I0J1187FB57869,32.963185,"Poway, CA",-117.035791,Blink-182,225,1,SODPLYE12AB01898FB,A New Hope,1997,Y,"Poway, CA",San Diego County,Poway,California,USA,us
ARNYFVH1187B9B6A9E,40.84753875,"The Bronx, New York City, NY",-73.839740055938,Billy Joel,221,1,SOOTKNK12AB017ED76,She's Always A Woman,1977,Y,"The Bronx, NY",Bronx County,New York,New York,USA,us
ARFZN2B1187B9AA469,52.47760079999999,"Birmingham, England",-1.8939359,Phil Lynott,216,1,SOYGWMP12A58A7B42D,Cathleen,1982,Y,"Birmingham, England",West Midlands Combined Authority,Birmingham,England,United Kingdom,gb
ARWZ9W91187B9B2B29,52.47760079999999,"Birmingham, England",-1.8939359,Black Sabbath,263,1,SOXNGDG12AB0184960,Am I Going Insane (Radio),1975,Y,"Birmingham, England",West Midlands Combined Authority,Birmingham,England,United Kingdom,gb
AR49OYY1187B9AD57D,35.771892446478205,Tennessee,-86.28256024667509,R.L. Burnside & The Sound Machine,205,1,SOBDTSF12AB0187D73,Bad Sign,1992,Y,Tennessee,Rutherford County,,Tennessee,United States of America,us
ARUSOMY1187FB4D3B4,40.4417509,"Pittsburgh, PA",-79.99009095074841,Anti-Flag,359,1,SOUJNFK12AB0186B86,This Is NOT a Crass Song,1999,Y,"Pittsburgh, PA",Allegheny County,Pittsburgh,Pennsylvania,USA,us
ARI25MJ1187FB3E1B0,51.421342,"Wimbledon, London, England",-0.206629452155202,Jamie T,207,1,SOYDOBR12AB01834F6,When They Are Gone (for Tim),2009,Y,"Wimbledon, London",,London,England,United Kingdom,gb
ARIGPNM1187B98C744,40.8078665,"Harlem, NY",-73.9452405,Kelis,273,1,SOEKUCQ12A81C21239,Trick Me (Mac & Toolz Extended Remix) (Explicit),2004,Y,"Harlem, NY",New York County,New York,New York,USA,us
AR2HNUS1187B9ACB82,35.1492032387007,"Memphis, TN",-90.0515765982326,Alex Chilton,325,1,SOKNKGG12AB0182B51,Take me home and make me like it,1981,Y,"Memphis, TN",Shelby County,Memphis,Tennessee,USA,us
AR0BGM11187B9B09BA,52.2038511,"Cambridge, England",0.12514872495977,Olivia Newton-John,199,1,SOCDFDM12AF72A1D9F,Angels In The Snow,2008,Y,"Cambridge, England",Cambridgeshire,Cambridge,England,United Kingdom,gb
AREEE851187FB4762A,52.5005468,The Netherlands,5.7484515,The Dreamside,285,1,SONOGCT12A8AE475EC,Somewhere Before,2003,Y,The Netherlands,,,Flevoland,Netherlands,nl
ARSFKG71187FB3D66F,33.5901364,"Laurel Canyon, CA",-117.7677024,Crosby_ Stills & Nash,311,1,SOFQAZF12A58A7EE50,In My Dreams  (LP Version),2005,Y,"Laurel Canyon, CA",Orange County,,California,United States of America,us
ARS5ESO1187B991840,39.75909,"Dayton, OH",-84.1914167,Lakeside,294,1,SOUTRPB12AB01833E0,Say Yes,1980,Y,"Dayton, OH",Montgomery County,Dayton,Ohio,United States of America,us
ARBYA1N1187B98F5A1,40.69442945,"Peoria, IL",-89.5888229253737,Mudvayne,208,1,SOGDUKY12A8C1383D5,Pushing Through,2005,Y,"Peoria, IL",Peoria County,Peoria,Illinois,USA,us
AROI11Q1187FB4C6EA,59.6763050205222,Sweden,14.524291189124,Satanic Surfers,104,1,SOJWDRR12A8C139652,Ketty,1995,Y,Sweden,Hällefors,,Örebro County,Sweden,se
ARTJDEJ1187FB41D6B,41.8753754,"Chicago, IL",-87.6248273616119,Dennis DeYoung,239,1,SOIHSKN12A6D4F6F54,While There's Still Time,1996,Y,"Chicago, IL",Cook County,Chicago,Illinois,United States of America,us
ARTIBDP1187B99F431,40.71274295,"New York, NY",-74.0059502441252,Stephen Sondheim,134,1,SOBYJPU12A6D4F85AF,Ladies in Their Sensitivities,1979,Y,"New York, NY",New York County,New York,New York,USA,us
AR4EUFM1187B99592B,41.8753754,"Chicago, IL",-87.6248273616119,Chicago,278,1,SOZGOUT12A81C23048,What Child Is This (LP Version),0,Y,"Chicago, IL",Cook County,Chicago,Illinois,United States of America,us
AR9W55Y1187FB4AA37,50.1473459839616,Selkirk,-96.88003119884779,Frightened Rabbit,219,1,SOBVVUL12AB0180166,The Modern Leper,2007,Y,Selkirk,,Selkirk,Manitoba,Canada,ca
AREGV3K1187B9AF614,34.05369605,"Los Angeles, California",-118.242921218334,Mötley Crüe,254,1,SOFMOWZ12AB017F3B7,Get It For Free,1999,Y,"Los Angeles, California",Los Angeles County,Los Angeles,California,United States of America,us
ART5MUE1187B98C961,34.05369605,"Los Angeles, CA",-118.242921218334,Metallica,252,1,SOGAUIQ12A6D4F8262,Hit The Lights,1982,Y,"Los Angeles, CA",Los Angeles County,Los Angeles,California,United States of America,us
AR6892W1187B9AC71B,51.5073203,"London, England",-0.12765724122807,Placebo,246,1,SOCLAYI12A6310F138,Slave To The Wage,2000,Y,"London, England",,London,England,United Kingdom,gb
AR5O86P1187FB3B8CD,48.8565387,"Paris, France",2.3518054,Edith Piaf,216,1,SOABNBI12A8C13F890,Mon légionaire,0,Y,"Paris, France",Paris,Paris,Ile-de-France,France,fr
ARWZ9W91187B9B2B29,52.47760079999999,"Birmingham, England",-1.8939359,Black Sabbath,321,1,SOERYSP12AB0185E17,Over To You,1978,Y,"Birmingham, England",West Midlands Combined Authority,Birmingham,England,United Kingdom,gb
ARNI7VZ1187B9AA6AF,38.8152,"Alexandria, VA",-77.091032,Joaquin Phoenix,132,1,SOEJRUR12AB018B67F,You're My Baby,2005,Y,"Alexandria, VA",,Alexandria,Virginia,USA,us
ARWJAMZ1187B9B32CA,45.082091272568704,US,6.05964459427767,Charles Aznavour,222,1,SOAOWRE12AB0183645,Bon anniversaire (live au palais des congrès),0,Y,US,Grenoble,,Auvergne-Rhône-Alpes,France,fr
AR91NIO1187FB4D732,41.71040410000001,Georgia,44.0310814,Cat Power,233,1,SOXZRBE12B0B808AB6,Sweedeedee,2000,Y,Georgia,Tsalka Municipality,,Lower Kartli,Georgia,ge
AR99J1F1187B9AAE3F,50.6401673,BELGIUM,4.6667014,Plastic Bertrand,138,1,SOTZIEZ12AB017E1AF,Coeur d'acier,2002,Y,BELGIUM,Nivelles,,Wallonia,Belgium,be
ARPFK3E1187B9A43BF,27.9477134,"Tampa, FL",-82.4582494,Underoath,196,1,SOMYYAN12AF72A4484,Anyone Can Dig A Hole But It Takes A Real Man To Call It Home,2008,Y,"Tampa, FL",Hillsborough County,Tampa,Florida,USA,us
ARWXN7M1187B98C47D,39.7682816,"Indianapolis, IN",-86.15829659999999,Babyface,242,1,SOMMWIV12A8C134D08,Seven Seas,1996,Y,"Indianapolis, IN",Marion County,Indianapolis,Indiana,United States of America,us
AR4VT3E1187FB570BB,41.4022198,Nebraska,-99.7272241,Cher,192,1,SOVEBYA12A6D4F413A,Elusive Butterfly,1966,Y,Nebraska,Custer County,,Nebraska,USA,us
AR37ILI1187B98E27B,51.5073203,"London, England",-0.12765724122807,Shriekback,113,1,SOBXYZM12A8C140450,Reason With The Beast,2005,Y,"London, England",,London,England,United Kingdom,gb
ARY2RKZ1187B9ABF37,51.5073203,"London, England",-0.12765724122807,Culture Club,305,1,SOQADOD12AB01860CC,Do You Really Want To Hurt Me (Live),0,Y,"London, England",,London,England,United Kingdom,gb
ARSF0K11187B9AF319,51.5073203,"London, England",-0.12765724122807,James Taylor,324,1,SOBKPCA12A8C131AD9,Steamroller Blues,0,Y,"London, England",,London,England,United Kingdom,gb
AR1DR0E1187FB48F61,39.604282,"Cross Lane, WV",-79.90356700000002,Kathy Mattea,44,1,SOTTJUN12A8C132C22,Sally In the Garden,2008,Y,"Cross Lane, WV",Monongalia County,,West Virginia,USA,us
ARR1C0N1187FB372DF,53.3504921,"Dublin, Ireland",-6.2605679166146695,My Bloody Valentine,319,1,SOVBPVD12A8C144C18,Sometimes,1991,Y,"Dublin, Ireland",County Dublin,Dublin,,Ireland,ie
AR87P0Q1187B989ADF,33.75007535,"Orange County, CA",-117.870426997477,Stryper,249,1,SOZAHJH12AC468C8E9,My Love My Life My Flame*,2009,Y,"Orange County, CA",Orange County,Santa Ana,California,United States of America,us
AR6PFD411C8A416424,45.60612435,Laval Quebec Canada,-73.7345813643513,Passion Pit,242,1,SOKPRFU12AC4688BA9,Moth's Wings,2009,Y,Laval Quebec Canada,,Laval,Quebec,Canada,ca
ARA3VJJ1187FB3F5A6,38.5226637,"Quantico, VA",-77.29064890000002,Shelby Lynne,290,1,SOJWZGJ12A670203B7,Old Times Sake,2005,Y,"Quantico, VA",Prince William County,,Virginia,USA,us
AR6T2Z31187B9B437D,47.6038904,"Seattle, WA",-122.330098649484,Damien Jurado,206,1,SOSRHMP12A58A7E5CA,Gas Station,2006,Y,"Seattle, WA",King County,Seattle,Washington,USA,us
ARVA1X31187FB5A36B,34.05369605,"Los Angeles, CA",-118.242921218334,Sea Wolf,229,1,SORWEZH12A8AE45CF0,Winter Windows,2007,Y,"Los Angeles, CA",Los Angeles County,Los Angeles,California,United States of America,us
ARTH03J1187FB3E00C,51.8404967554095,"Hertfordshire, England",-0.0988565402438589,Enter Shikari,532,1,SOCGPMB12A58A8125F,We Can Breathe In Space_ They Just Don't Want Us To Escape,0,Y,"Hertfordshire, England",Hertfordshire,East Hertfordshire,England,United Kingdom,gb
ARGITL31187B9892BE,29.9498071,"New Orleans, LA",-90.06986640000002,Mutemath,370,1,SOYYKZM12A8C13864A,Noticed [Live],2007,Y,"New Orleans, LA",Orleans Parish,New Orleans,Louisiana,USA,us
ARDW1CO1187B9AD318,40.85172275,NY - Long Island,-73.0992328238247,They Might Be Giants,9,1,SOHOXHT12A8AE46B00,Fingertips 3 - I Hear The Wind (LP Version),1992,Y,"NY, Long Island",Suffolk County,,New York,USA,us
AR91NIO1187FB4D732,41.71040410000001,Georgia,44.0310814,Cat Power,339,1,SOUPTEA12A8C13CE40,He Turns Down,1998,Y,Georgia,Tsalka Municipality,,Lower Kartli,Georgia,ge
AR7WFGC1187B9B1CD4,33.9303452538418,"Lynwood, CA",-118.211473280358,Weird Al Yankovic,232,1,SONERIC12A8C132623,Buy Me A Condo,1984,Y,"Lynwood, CA",Los Angeles County,Lynwood,California,USA,us
ARDJZ181187B9B7FBF,37.7792929,"San Francisco, CA",-122.41926032381001,Sly & The Family Stone,141,1,SOHZPHA12A8C13701F,Everyday People,1969,Y,"San Francisco, CA",San Francisco City and County,San Francisco,California,United States of America,us
ARDAF601187FB4CD05,40.8623514,"Glen Cove, NY",-73.63354146259181,Ashanti,282,1,SOPPSDA12AF72A3D97,VooDoo,2002,Y,"Glen Cove, NY",Nassau County,Glen Cove,New York,USA,us
AR9W3X91187FB3994C,51.4926839,"Chiswick, London, England",-0.263570276249999,Phil Collins,316,1,SOJRFYT12A6D4F9972,I Cannot Believe It's True,1982,Y,"Chiswick, London",,London,England,United Kingdom,gb
ARF4YQA1187FB4EB48,33.748619500000004,"Atlanta, GA",-84.3907725501786,Shop Boyz,250,1,SOSIKWC12A8C13EBD9,Next To Me,2007,Y,"Atlanta, GA",Fulton County,Atlanta,Georgia,United States of America,us
AREQIWS1187FB39A63,40.71274295,"New York, NY",-74.0059502441252,Blonde Redhead,275,1,SOAXKDL12A67ADD93C,SW,2007,Y,"New York, NY",New York County,New York,New York,USA,us
ARVHQNN1187B9B9FA3,51.5073203,"London, England",-0.12765724122807,Cat Stevens,275,1,SOLAYSZ12A6701F5BE,Sun / C79,1974,Y,"London, England",,London,England,United Kingdom,gb
ARY55LO1187B9A3F17,35.1492032387007,"Memphis, TN",-90.0515765982326,Three-6 Mafia,159,1,SOVPWAB12A8C13BBA8,We Got Da Dope,0,Y,"Memphis, TN",Shelby County,Memphis,Tennessee,USA,us
ARSCJEI1187FB5C65A,34.1814816820727,"Burbank, CA",-118.326200695443,Andrew Gold,261,1,SOFLPNG12AAA8C93BF,Lonely Boy,1992,Y,"Burbank, CA",Los Angeles County,Burbank,California,United States of America,us
AR6HXY21187B9B3FBA,35.9133706,"Chapel Hill, NC",-79.0556864,Mojo Nixon,148,1,SOCJKVC12A8C137893,Legalize It,0,Y,"Chapel Hill, NC",Orange County,,North Carolina,USA,us
AR91NIO1187FB4D732,41.71040410000001,Georgia,44.0310814,Cat Power,259,1,SOMEELJ12A58A7C7F5,Great Expectations,1995,Y,Georgia,Tsalka Municipality,,Lower Kartli,Georgia,ge
AR4OH581187B9B7157,33.748619500000004,"Atlanta, GA",-84.3907725501786,Jagged Edge Featuring Major Damage,263,1,SOEYFUB12AF729E4FE,Girls Gone Wild,2003,Y,"Atlanta, GA",Fulton County,Atlanta,Georgia,United States of America,us
ARQKYIJ1187FB44AD0,3.4518135,Cali COLOMBIA,-76.532457130651,Quantic,261,1,SOFEJKC12A8C14438F,The Sound Of Everything featuring Alice Russell,0,Y,Cali COLOMBIA,Cali,Perímetro Urbano Santiago de Cali,Valle del Cauca,Colombia,co
ARHB1TE1187B9BA5C0,29.7591492,"Houston, TX",-95.3676646223039,Fenix TX,196,1,SOMKEVG12A6D4F5B76,Beating A Dead Horse,2001,Y,"Houston, TX",Harris County,Houston,Texas,USA,us
ARKTTQZ1187B98B771,45.4960504268847,"Montreal, Quebec, Canada",-73.6102256791772,The Dears,323,1,SOJXMKU12AB018359D,No Cities Left,2003,Y,"Montreal, Canada",Urban agglomeration of Montreal,Montreal,Quebec,Canada,ca
ARSW5F51187FB4CFC9,47.6038904,"Seattle, WA",-122.330098649484,Alice In Chains,230,1,SOPANEB12A8C13E81E,God Smack,1992,Y,"Seattle, WA",King County,Seattle,Washington,USA,us
ARFC2NI1187FB4B4E1,59.577985102014104,"J�ping, Sweden",15.877023636629,The Mary Onettes,218,1,SOQYPDN12A5891FFE9,R.U.N.,2006,Y,"Koping, Sweden",Köping,,Västmanland County,Sweden,se
ARZXTEY1187B9997A7,40.8078665,"New York, NY [Harlem]",-73.9452405,Juelz Santana,233,1,SOVNFJP12AF72A6545,Lil' Boy Fresh,2005,Y,"Harlem, New York",New York County,New York,New York,USA,us
ARNTMYN1187FB527DC,32.4618265,"Jenin, Palestine",35.297462,Belly,204,1,SOJJFLY12A8C13606C,Gepetto,1992,Y,"Jenin, Palestine",Jenin Governorate,Jenin,Judea and Samaria,Palestinian Territory,ps
ARHHNN41187B98B4D5,34.05369605,Los Angeles CA,-118.242921218334,Miranda Lee Richards,243,1,SOXSUIT12A6D4F48DC,The Long Goodbye,2001,Y,Los Angeles CA,Los Angeles County,Los Angeles,California,United States of America,us
ARJCOPY1187FB5C315,2.0428063332281203,"Mogadishu, Somalia",45.33854506765861,K'Naan,213,1,SOJYWZM12A8C13D52A,Is It A Myth?,2007,Y,"Mogadishu, Somalia",Mogadishu مقديشو,Mogadishu,Banaadir,Somalia,so
ARQXR6R1187FB46FD6,44.970839672957105,"Minneapolis, MN",-93.2683221991986,Soul Asylum,166,1,SODRXYW12A6D4F956E,Long Day (Album Version),0,Y,"Minneapolis, MN",Hennepin County,Minneapolis,Minnesota,USA,us
AR978O81187FB420B7,51.0827402760847,Germany,10.422852665054199,International Pony,229,1,SOLMTKZ12A6701FF58,Why Why Why,2002,Y,Germany,Unstrut-Hainich-Kreis,Unstrut-Hainich,Thuringia,Germany,de
ARKZJ301187FB521B2,50.07267635,LDN,14.3411296736969,Lily Allen,234,1,SOHAHVO12AB017D096,LDN (Warbox Original Cut Dub),2009,Y,LDN,okres Hlavní město Praha,Prague,Prague,Czechia,cz
ARL4TII1187B9B46E1,51.5073203,"London, England",-0.12765724122807,Queen,298,1,SOOCZXY12A6310F0E3,White Man (1993 Digital Remaster),1976,Y,"London, England",,London,England,United Kingdom,gb
ARYVJYT1187FB484D7,32.7174209,"San Diego, CA",-117.1627714,John Stewart,290,1,SONNUHH12A8C133376,Price Of The Fire,0,Y,"San Diego, CA",San Diego County,San Diego,California,USA,us
AR9I1L41187FB37F0E,29.9498071,"New Orleans, LA",-90.06986640000002,Harry Connick_ Jr.,251,1,SOPKIWR12AF72AAB2F,Here Comes The Big Parade,1994,Y,"New Orleans, LA",Orleans Parish,New Orleans,Louisiana,USA,us
ARYGXKQ11E2835CE3B,40.6535907015951,"New York, NY [Queens]",-73.7918826926766,Styles P,85,1,SOVFUCQ12AB0185388,Intro,2002,Y,"Queens, New York",Queens County,New York,New York,USA,us
ARCXCF81187B9A93C6,59.6763050205222,Sweden,14.524291189124,Marduk,307,1,SOVALOX12AB018607D,Dracul Va Domni Din Nou In Transilvania,1996,Y,Sweden,Hällefors,,Örebro County,Sweden,se
ARNGLM31187FB5A765,51.208046,Düsseldorf-Oberbilk,6.808957149999981,Heino,231,1,SOEDNBX12A6D4F5DF5,Schön Ist Die Jugend,0,Y,DsseldorfOberbilk,Düsseldorf,Dusseldorf,North Rhine-Westphalia,Germany,de
ARJM42R1187B9B69AA,40.486208836734704,"New Brunswick, NJ",-74.4518063673469,Jaheim (Featuring Lil' Mo),198,1,SODFQKV12A8C13C34E,Finders Keepers [Featuring Lil' Mo] (Album Version),2001,Y,"New Brunswick, NJ",Middlesex County,New Brunswick,New Jersey,United States of America,us
ARAZP5N1187B9B4D5D,30.271149,"Austin, TX",-97.743713,Okkervil River,354,1,SOYAUGB12A6D4F9EE6,Okkervil River Song,2002,Y,"Austin, TX",Travis County,Austin,Texas,USA,us
ARBPDMG1187B993E52,41.16155759848979,"Marco de Canavezes, Portugal",-8.12848697693612,Carmen Miranda,173,1,SOAPOEA12A67AE1DAA,Novo Amor (1995 Digital Remaster),0,Y,"Marco de Canavezes, Portugal",Marco de Canaveses,,North,Portugal,pt
ARN2K2J1187B9B1E05,52.60760645,"Great Yarmouth, England",1.73081532202848,Catherine Wheel,341,1,SOJLEOL12A81C21838,Tongue Twisted,1993,Y,"Great Yarmouth, England",Norfolk,,England,United Kingdom,gb
AREBWEH1187B99EA9A,60.1674653,Helsinki,24.9425458,Beherit,202,1,SOAHAZZ12AAF3B464A,Lord of Shadows and Golden Wood,1993,Y,Helsinki,Helsinki sub-region,Helsinki,Southern Finland,Finland,fi
ARGWNT41187FB463F1,39.95240015,"Philadelphia, PA",-75.1629878834212,Matt Pond PA,235,1,SOTRDWW12A8AE45681,Sunlight (Clean Version),2007,Y,"Philadelphia, PA",Philadelphia County,Philadelphia,Pennsylvania,United States of America,us
AROSI8L1187B9ACD43,34.05369605,"Los Angeles, CA",-118.242921218334,Ice Cube,252,1,SOKYHYL12A8C13D79D,It Was A Good Day,1992,Y,"Los Angeles, CA",Los Angeles County,Los Angeles,California,United States of America,us
ARUNHUJ1187FB4C13E,51.5073203,London,-0.12765724122807,Black Ghosts,346,1,SOHTIDS12A6D4F7EEE,Face (Switch Remix),2007,Y,London,,London,England,United Kingdom,gb
ARBMVI01187B9A7D64,42.360401,"Boston, MA",-71.0576816290551,isis,435,1,SOLAKUO12AF72A2069,The Other,0,Y,"Boston, MA",Suffolk County,Boston,Massachusetts,USA,us
ARIHE7O1187FB47DED,40.82703400000001,"Edgewater, USA",-73.975627,The Streets,284,1,SOXOLJQ12A6701F47D,Blinded By The Lights (Album version),0,Y,"Edgewater, USA",Bergen County,Edgewater,New Jersey,USA,us
ARC9Y481187B990259,56.67401565,"Halmstad, Sweden",12.857339653766301,Roxette,201,1,SOYKHUW12A6D4F832B,Make My Head Go Pop,2001,Y,"Halmstad, Sweden",Halmstad,,Halland County,Sweden,se
ARDAF601187FB4CD05,40.8623514,"Glen Cove, NY",-73.63354146259181,Ashanti,248,1,SOTGYNA12A8C13F3A7,Love Again,2004,Y,"Glen Cove, NY",Nassau County,Glen Cove,New York,USA,us
ARZGTK71187B9AC7F5,36.2516475,"California, USA",-118.852583,Eels,235,1,SOLBTPS12A58A7D8A0,I Write The B-Sides,2001,Y,"California, USA",Tulare County,,California,USA,us
ARHYDJK1187B9B8047,30.4160316,"Biloxi, MS",-88.87586309999998,Chris LeDoux,191,1,SOBEWJH12A6D4F7AB0,Looking At You Girl,0,Y,"Biloxi, MS",Harrison County,Biloxi,Mississippi,USA,us
ARDGES11187B9B7DDF,54.9738095,Newcastle,-1.61316585,Roxy Music,192,1,SOGPHPE12A6D4F8072,In The Midnight Hour (1999 Digital Remaster),0,Y,Newcastle,Tyne and Wear,Newcastle upon Tyne,England,United Kingdom,gb
AR8ICRA1187B9B8A5F,42.360401,"Boston, MA, USA",-71.0576816290551,Godsmack,210,1,SOKDKFM12A6701D10B,Get Up_ Get Out!,1997,Y,"Boston, USA",Suffolk County,Boston,Massachusetts,USA,us
ARVFF0Y1187B9AC3CA,37.95753195,"Stockton, CA",-121.29031657821501,Pavement,214,1,SOJGYIC12A8AE4574B,Folk Jam,1999,Y,"Stockton, CA",San Joaquin County,Stockton,California,USA,us
ARSEOQC1187B9BA087,48.741760600000006,"Saverene, France",7.3628267,Biréli Lagrène,290,1,SOOJTJU12AB0184C22,Blues for Ike,1995,Y,"Saverne, France",Saverne,,Grand Est,France,fr
ARNM76U1187FB48282,40.2257880714243,OH,-82.69337823280459,Powerspace,221,1,SOLQFWE12A8C13F763,Sleep_ Everyone... (Album Version),2007,Y,OH,Licking County,,Ohio,United States of America,us
ARIA72Z1187B9B05A2,33.75007535,"Orange County, CA",-117.870426997477,Throwdown,247,1,SONLRLQ12A58A7DD38,Give My Life (Album Version),2005,Y,"Orange County, CA",Orange County,Santa Ana,California,United States of America,us
AR6Q4T91187B995616,40.71274295,"New York, NY",-74.0059502441252,Sonny Rollins,341,1,SOLZSJQ12AB0189D87,Denial,1992,Y,"New York, NY",New York County,New York,New York,USA,us
AR6IHPG1187FB55C49,40.71274295,"New York, NY",-74.0059502441252,Swans,310,1,SOKDXDG12A8C1357ED,Blackmail,1986,Y,"New York, NY",New York County,New York,New York,USA,us
ARJ7KQ31187FB45C3D,52.3741649,"Hanover, Germany",9.7380487,Marquess,197,1,SOTRIAM12A8C13E18B,La discoteca,2007,Y,"Hanover, Germany",Region Hannover,Hanover,Lower Saxony,Germany,de
ARKNOZU1187FB5A371,37.39874285,"Lynchburg, VA",-79.1840478988096,Phil Vassar,217,1,SOCWNBM12A6D4FCD84,This Is My Life,2008,Y,"Lynchburg, VA",,Lynchburg,Virginia,USA,us
AR3DXTG1187FB38776,51.4630736510158,"Bexleyheath, Kent, England",0.148429581963179,Kate Bush,240,1,SOFYRGE12AF72A3BC8,Wow,1978,Y,"Bexleyheath, England",,London,England,United Kingdom,gb
ARZQMTK1187FB4611A,33.942531169714606,"Downey, CA",-118.123409401612,Donavon Frankenreiter,151,1,SOUMONA12A6310DA5F,Day Dreamer,2004,Y,"Downey, CA",Los Angeles County,Downey,California,USA,us
ARHQBRZ1187FB3BDA2,37.8710283,"Berkeley, California",-122.2726607,MC Lars (featuring Jaret Reddick),230,1,SOKUNAJ12AB018D712,I'm Dreaming Of A Green Christmas,0,Y,"Berkeley, California",Alameda County,Berkeley,California,USA,us
ARZJRXR1187FB3CF96,41.8753754,"Chicago, IL",-87.6248273616119,Allan Sherman,216,1,SOFERCQ12A6701C0A9,One Hippoptami (LP Version),0,Y,"Chicago, IL",Cook County,Chicago,Illinois,United States of America,us
ARHS5PJ1187FB3C50D,40.71274295,New York,-74.0059502441252,Cathedral,329,1,SOAWPMG12AB01878AE,Wheels Of Confusion,1992,Y,New York,New York County,New York,New York,USA,us
ARNBYCT1187B9AA090,39.5354255,"Bel Air, MD",-76.3491915905639,Looking Forward,115,1,SOTUPQO12A8C130E93,Best Days,0,Y,"Bel Air, MD",Harford County,,Maryland,United States of America,us
ARSOQF31187B9B1471,51.5073203,"London, England",-0.12765724122807,Japan,322,1,SOEVHFO12A8C143C79,Burning Bridges (2003 Digital Remaster),1980,Y,"London, England",,London,England,United Kingdom,gb
AR914BW1187FB45A1B,53.47952545,"Manchester, England",-2.24491472956316,Morrissey,121,1,SOJYEVH12A58A7E9B8,I Know Very Well How I Got My Name,1988,Y,"Manchester, England",Greater Manchester,Manchester,England,United Kingdom,gb
ARPANXO1187B9B468A,40.85172275,"Long Island, NY",-73.0992328238247,Public Enemy,288,1,SOBTEDP12A6D4F970F,By The Time I Get To Arizona,1991,Y,"Long Island, NY",Suffolk County,,New York,USA,us
ARKR75V1187FB3D4D5,40.0884475,New Jersey,-74.3995939,My Chemical Romance,57,1,SOMTYLD12AF72A6883,Interlude (Album Version),2004,Y,New Jersey,Ocean County,,New Jersey,USA,us
AR6CLFP1187B9ACB94,38.58138579999999,"Sacramento, CA",-121.49471775,Daniel Johnston,219,1,SOJBLIX12A8C1373C7,Desperate Man Blues,1983,Y,"Sacramento, CA",Sacramento County,Sacramento,California,USA,us
ARUSOMY1187FB4D3B4,40.4417509,"Pittsburgh, PA",-79.99009095074841,Anti-Flag,121,1,SORAVJS12A8C13FC43,State Funeral,2006,Y,"Pittsburgh, PA",Allegheny County,Pittsburgh,Pennsylvania,USA,us
AR615ZF1187FB4A4B0,37.8042763,Oakland CA,-122.2716657,Mistah F.A.B.,194,1,SOEZBMK12AB017C674,Dem Cars,0,Y,Oakland CA,Alameda County,Oakland,California,USA,us
AR4HL8H1187FB493DD,27.7542107909551,Florida,-81.4624241742334,Scooter,269,1,SOZRARQ12A6D4FA4E6,Waiting For Spring,0,Y,Florida,Polk County,,Florida,USA,us
ARMD3XX1187B9ACF84,34.05369605,"Los Angeles, CA",-118.242921218334,Cypress Hill featuring Prodigy and Twin,222,1,SOIUZUS12A8C136CA7,Last Laugh,2004,Y,"Los Angeles, CA",Los Angeles County,Los Angeles,California,United States of America,us
ARLHO5Z1187FB4C861,40.71274295,"New York, NY",-74.0059502441252,Beastie Boys,248,1,SOCLHYJ12AB01820D4,Shadrach (2009 Digital Remaster),0,Y,"New York, NY",New York County,New York,New York,USA,us
ARC8CQZ1187B98DECA,29.299319897959197,"Galveston, TX",-94.7945932857143,Jack Johnson,264,1,SOWGZFG12A8151AF41,Monsoon,2008,Y,"Galveston, TX",Galveston County,,Texas,USA,us
AR8DTD41187FB51ED9,37.7792929,California - SF,-122.41926032381001,Fantasia,254,1,SOMOOXH12A8C13A0EA,Ain't Gon' Beg You,0,Y,"California, SF",San Francisco City and County,San Francisco,California,United States of America,us
ARZQYSZ1187FB3AC39,40.5838191,"Staten Island, NY",-74.1495749943755,Ghostface Killah,164,1,SOYQGHU12A8C135EAD,Who Would You Fuck,2000,Y,"Staten Island, NY",Richmond County,New York,New York,USA,us
